pwsid,org_id,source_facility_id,source_facility_name,source_facility_activity_status,source_facility_availability,source_facility_type,water_type,latitude,longitude
CA0103040,NA,001,upper spring,active,permanent,spring,groundwater,37.753023,-122.014335
CA0103040,NA,002,cistern spring,active,permanent,spring,groundwater,37.7539,-122.0158
CA0103040,NA,003,lower spring,active,permanent,spring,groundwater,37.754,-122.016
CA0103041,NA,001,well 01,active,permanent,well,groundwater,37.7167,-122.14588
CA0103041,NA,003,ebmud connection,active,permanent,consecutive connection,surface water,37.71716,-122.14554
CA0105002,NA,001,well 01,active,permanent,well,groundwater,37.809915,-121.559597
CA0105008,NA,001,sfpuc pleasanton wells,active,permanent,consecutive connection,groundwater,37.6447,-121.892708
CA0105009,NA,003,hauled water,active,permanent,"non-piped, purchased",surface water,37.786979,-121.577572
CA0105009,NA,Not Available,all pure water hauling,not available,permanent,purchased,surface water,NA,NA
CA0105010,NA,001,lake del valle,active,permanent,intake,surface water,37.586202,-121.706583
CA0105012,NA,001,well 01 (headquarters),active,permanent,well,groundwater,37.515201,-121.831073
CA0105013,NA,001,spring 02,active,permanent,spring,groundwater,37.805868,-122.161059
CA0105016,NA,001,main well,active,permanent,well,groundwater,37.754659,-121.575644
CA0105017,NA,001,spring 01,active,permanent,spring,groundwater,37.539114,-121.570458
CA0105018,NA,001,poi well,active,permanent,well,groundwater,37.667422,-121.676105
CA0105019,NA,001,water well-1,active,permanent,well,groundwater,37.57306,-121.88479
CA0105020,NA,002,auxiliary well,active,permanent,well,groundwater,37.665479,-121.889997
CA0110001,23,041,sfpuc takeoff - pt blend facility (sf1),active,permanent,consecutive connection,surface water,37.566278,-121.978315
CA0110001,23,049,bellflower well,active,permanent,well,groundwater,37.530484,-122.00989
CA0110003,401,001,del valle wtp connection to zone 7,active,permanent,consecutive connection,surface water,37.6325,-121.784722
CA0110003,401,002,patterson pass wtp connection to zone 7,active,permanent,consecutive connection,surface water,37.694722,-121.680833
CA0110003,401,021,well 31-01,active,permanent,well,groundwater,37.683082,-121.789807
CA0110005,775,001,briones reservoir,active,permanent,intake,surface water,37.915041,-122.206954
CA0110005,775,010,upper san leandro reservoir,active,permanent,intake,surface water,37.778763,-122.122481
CA0110005,775,021,walnut creek wtp intake,active,permanent,intake,surface water,37.915,-122.087
CA0110005,775,022,freeport regional water project,active,permanent,intake,surface water,38.472578,-121.506575
CA0110006,1143,001,mission san jose turnout - treated,active,permanent,consecutive connection,surface water,37.547649,-121.935732
CA0110006,1143,002,newark turnout - treated,active,permanent,consecutive connection,surface water,37.521977,-122.05703
CA0110006,1143,007,well e - emergency standby,active,emergency,well,groundwater,37.618876,-122.097391
CA0110008,1940,002,well 06,active,permanent,well,groundwater,37.672896,-121.872233
CA0110008,1940,004,well 08,active,emergency,well,groundwater,37.676552,-121.860434
CA0110008,1940,005,alameda county fcwd - zone #7 - treated,active,permanent,consecutive connection,surface water,37.6524,-121.805814
CA0110009,759,003,zone 7 wa - turnout #1 - treated,active,permanent,consecutive connection,surface water,37.711571,-121.910006
CA0110009,759,004,zone 7 wa - turnout #2 - treated,active,permanent,consecutive connection,surface water,37.717015,-121.915584
CA0110010,NA,017,chain of lakes well no. 5,active,permanent,well,groundwater,37.6916,-121.8481
CA0110010,NA,019,stoneridge well 01,active,permanent,well,groundwater,37.692246,-121.867178
CA0110010,NA,023,chain of lakes well 01,active,permanent,well,groundwater,37.685691,-121.846219
CA0110010,NA,024,chain of lakes well 02,active,permanent,well,groundwater,37.685681,-121.837888
CA0110011,1443,001,trevarno rd.-zone 7-treated,active,permanent,consecutive connection,surface water,37.690833,-121.742778
CA0110011,1443,002,altamont pumps-zone 7-treated,active,permanent,consecutive connection,surface water,37.696944,-121.683611
CA0110011,1443,003,vasco-zone 7-treated,active,permanent,consecutive connection,surface water,37.711667,-121.721389
CA0110012,2164,001,sfrws - treated,active,permanent,consecutive connection,surface water,37.592778,-121.890583
CA0110016,NA,001,east bay mud - purchased - treated,active,permanent,consecutive connection,surface water,37.78,-122.29
CA0110018,2164,004,well a,active,permanent,well,groundwater,37.664716,-121.897434
CA0110018,2164,005,well b,active,permanent,well,groundwater,37.662123,-121.897397
CA0110650,NA,001,delta mendota canal,active,permanent,intake,surface water,37.797314,-121.585403
CA0110701,NA,001,sfpuc rws connection,active,permanent,consecutive connection,surface water,37.611,-121.68
CA0110800,NA,001,mission grade well #1,active,permanent,well,groundwater,37.565686,-121.897285
CA0202501,NA,001,well 01,active,permanent,well,groundwater,33.549167,-116.151583
CA0202502,NA,001,well 01,active,permanent,well,groundwater,38.776673,-119.822669
CA0202503,NA,001,well 01,inactive,permanent,well,groundwater,38.773194,-119.818527
CA0202503,NA,002,well 02,active,permanent,well,groundwater,36.903891,-119.91199400000001
CA0202504,NA,001,creek intake - raw,active,permanent,intake,surface water,38.688426,-119.809979
CA0202504,NA,003,well 01,active,permanent,well,groundwater,38.691725,-119.80236
CA0202504,NA,004,well nio. 2,active,permanent,well,groundwater,38.691561,-119.803583
CA0202505,NA,001,hand pump,active,permanent,well,groundwater,38.517949,-119.902436
CA0202506,NA,001,well,active,permanent,well,groundwater,38.703448,-120.051634
CA0202509,NA,001,spring,active,permanent,spring,groundwater,38.69206,-119.839547
CA0202512,NA,001,well,active,permanent,well,groundwater,38.774371,-119.903141
CA0202513,NA,001,spring,active,permanent,spring,groundwater,38.69206,-119.839547
CA0202515,NA,001,well 01,active,permanent,well,groundwater,38.682734,-119.752786
CA0202516,NA,001,well 01,active,permanent,well,groundwater,38.776888,-119.899472
CA0202517,NA,006,silvertip campground well-06,active,permanent,well,groundwater,38.481544,-120.017797
CA0202519,NA,001,well 01,active,permanent,well,groundwater,37.911139,-122.004674
CA0202520,NA,001,well 01,active,permanent,well,groundwater,38.775638,-119.893472
CA0202522,NA,001,well 01,active,permanent,well,groundwater,38.757113,-119.818377
CA0202523,NA,001,hand pump,active,permanent,well,groundwater,38.537918,-119.825108
CA0202524,NA,001,well 01,active,permanent,well,groundwater,38.4885,-119.807555
CA0202525,NA,001,well 01,active,permanent,well,groundwater,38.488111,-119.804944
CA0202529,NA,002,well 02,active,permanent,well,groundwater,38.729455,-119.930136
CA0202532,NA,001,well,active,permanent,well,groundwater,38.764944,-119.848805
CA0202542,NA,002,well 02,active,permanent,well,groundwater,38.687244,-120.009808
CA0202546,NA,002,well 1,active,permanent,well,groundwater,38.704486,-120.052413
CA0202547,NA,001,well,active,permanent,well,groundwater,38.403063,-119.803046
CA0202548,NA,001,well,active,permanent,well,groundwater,38.406833,-119.790123
CA0202549,NA,001,spring 01,active,permanent,spring,groundwater,38.4878,-120.046431
CA0202550,NA,001,well 01,active,permanent,well,groundwater,38.76925,-119.816333
CA0202552,NA,001,well 01,active,permanent,well,groundwater,38.631431,-119.937809
CA0202554,NA,001,hand pump,active,permanent,well,groundwater,38.612423,-119.926069
CA0202556,NA,001,well 01,active,permanent,well,groundwater,38.639957,-119.955477
CA0202557,NA,001,hand pump,active,permanent,well,groundwater,38.627127,-119.936758
CA0202562,NA,001,hand pump,active,permanent,well,groundwater,38.404138,-119.787305
CA0202564,NA,001,hand pump,active,permanent,well,groundwater,38.404102,-119.789091
CA0202565,NA,001,hand pump,active,permanent,well,groundwater,38.404111,-119.791555
CA0202566,NA,001,hand pump,active,permanent,well,groundwater,38.404222,-119.790888
CA0202570,NA,001,well 01,active,permanent,well,groundwater,38.675508,-120.057827
CA0202599,NA,001,well 01,active,permanent,well,groundwater,38.810166,-119.7805
CA0205425,NA,002,well #2,active,permanent,well,groundwater,38.770958,-119.816633
CA0210001,NA,001,bear lake - raw,active,permanent,intake,surface water,38.472934,-120.044061
CA0210002,NA,002,well 02 - raw,active,permanent,well,groundwater,38.692305,-120.069917
CA0210002,NA,005,well 03r - raw,active,permanent,well,groundwater,38.687721,-120.070244
CA0210002,NA,007,well 05 - raw,active,permanent,well,groundwater,38.689583,-120.068027
CA0210300,NA,001,buck creek - raw,active,permanent,intake,surface water,38.702952,-119.842814
CA0300006,NA,001,camp ritche well 01,active,permanent,well,groundwater,38.552527,-120.231138
CA0300007,NA,001,plasse spring primary source,active,permanent,spring,groundwater,38.621388,-120.130833
CA0300010,NA,001,awa purchased source,active,permanent,consecutive connection,surface water,38.436639,-120.832371
CA0300011,NA,001,well 01 - raw,active,permanent,well,groundwater under the direct influence of surface water,38.360361,-120.749472
CA0300011,NA,004,well 02 - raw,proposed,permanent,well,groundwater,38.360653,-120.748501
CA0300016,NA,001,volcano csd well 01,active,permanent,well,groundwater,38.444444,-120.63
CA0300016,NA,002,volcano csd well 02,active,permanent,well,groundwater,38.443888,-120.630638
CA0300016,NA,003,cleveland tunnel-raw,active,permanent,well,groundwater under the direct influence of surface water,38.443888,-120.630555
CA0300019,NA,003,fiddletown csd well 02,active,permanent,well,groundwater,38.505855,-120.761282
CA0300022,NA,005,well no. 01,active,permanent,well,groundwater,38.543437,-120.228516
CA0300024,NA,002,well 02 - raw,active,permanent,well,groundwater,38.406164,-120.646699
CA0300025,NA,001,hams station well 01,active,permanent,well,groundwater,38.544055,-120.377472
CA0300028,NA,001,amador harvest inn well 01,active,permanent,well,groundwater,38.542112,-120.792511
CA0300032,NA,001,silver lake campground spring 01,active,permanent,spring,groundwater,38.532765,-120.22631
CA0300033,NA,001,bear river so shore spring 01,active,permanent,spring,groundwater,38.53263,-120.242493
CA0300034,NA,002,bear river group camp well 01,active,permanent,well,groundwater,38.533717,-120.229723
CA0300036,NA,001,bear river resort well 01,active,permanent,well,groundwater,38.550553,-120.25612
CA0300037,NA,001,lake amador-raw - standby,active,interim,intake,surface water,38.303758,-120.887488
CA0300037,NA,003,jvid pardee res-raw,active,permanent,intake,surface water,38.297708,-120.866528
CA0300043,NA,001,o k corral well 01,active,permanent,well,groundwater,38.478638,-120.523472
CA0300048,NA,001,barrett's place well 01,active,permanent,well,groundwater,38.491824,-120.513015
CA0300049,NA,001,plasses spring 01 - wrcb #1093a,active,permanent,spring,groundwater,38.625833,-120.129444
CA0300051,NA,001,well 01 - polar bear well,active,permanent,well,groundwater,38.478639,-120.523472
CA0300052,NA,002,cook's station well #2,active,permanent,well,groundwater,38.475936,-120.526005
CA0300053,NA,003,well no. 2,active,permanent,well,groundwater,38.48208,-120.859
CA0300053,NA,005,well no. 3,proposed,permanent,well,groundwater,38.482919,-120.859414
CA0300055,NA,001,sunset west well 01,active,permanent,well,groundwater,38.357638,-120.826777
CA0300062,NA,005,hope foundation well 3,active,permanent,well,groundwater,38.476685,-121.014155
CA0300065,NA,001,bear river summer home tract well 01,active,permanent,well,groundwater,38.538416,-120.215361
CA0300070,NA,002,e.s.l.h.o.a. meadow spring,active,permanent,spring,groundwater,38.664456,-120.095359
CA0300073,NA,001,tiger creek-raw surface source,active,permanent,intake,surface water,38.449555,-120.492611
CA0300074,NA,001,s. silver lake homeowners spring #1,active,permanent,spring,groundwater,38.627222,-120.133333
CA0300076,NA,002,kirkwood campground new well,active,permanent,well,groundwater,38.705615,-120.089994
CA0300077,NA,003,spinetta vineyards well 3,active,permanent,well,groundwater,38.540553,-120.789647
CA0300078,NA,003,ione band well 003 - raw,active,permanent,well,groundwater,38.311257,-120.974328
CA0300080,NA,001,plasse spring 01 - wrcb #1093b,active,permanent,spring,groundwater,38.625833,-120.129444
CA0300081,NA,001,villa toscano well,active,permanent,well,groundwater,38.504986,-120.824778
CA0300083,NA,001,bella piazza well,active,permanent,well,groundwater,38.496603,-120.822842
CA0300085,NA,002,barn well,active,permanent,well,groundwater,38.374795,-120.620891
CA0300086,NA,001,grace fellowship church well 01,active,permanent,well,groundwater,38.327365,-120.737147
CA0300087,NA,001,j. foster mitchell well,active,permanent,well,groundwater,38.517328,-120.825072
CA0300088,NA,001,black chasm well 01,active,permanent,well,groundwater,38.431129,-120.625761
CA0300089,NA,001,well no. 1 - raw,active,permanent,well,groundwater,38.515721,-120.821986
CA0300090,NA,001,borjon winery,active,permanent,well,groundwater,38.526632,-120.812975
CA0300091,NA,001,sera fina well,active,permanent,well,groundwater,38.456972,-120.915631
CA0300095,NA,001,well 01,active,permanent,well,groundwater,38.52073,-120.811497
CA0300096,NA,001,andis well 001,active,permanent,well,groundwater,38.521812,-120.817174
CA0300097,NA,001,terra d'oro vineyards well 1,active,permanent,well,groundwater,38.508951,-120.802181
CA0300099,NA,001,helwig well #1,active,permanent,well,groundwater,38.530885,-120.809237
CA0300101,NA,001,well no. 4 - raw,active,permanent,well,groundwater,38.543568,-120.797716
CA0300102,NA,001,schmitz wines well #1,active,permanent,well,groundwater,38.464498,-120.85723
CA0300104,NA,001,slo 2 20 well 01,active,permanent,well,groundwater,38.498814,-120.810262
CA0300107,NA,001,bella grace well 01,active,permanent,well,groundwater,38.456962,-120.915619
CA0300108,NA,001,rancho victoria well 01,active,permanent,well,groundwater,38.455492,-120.887847
CA0300110,NA,001,iron hub winery well 01,active,permanent,well,groundwater,38.539542,-120.792624
CA0300112,NA,001,paul j. wines well 1,active,permanent,well,groundwater,38.515359,-120.825278
CA0300113,NA,001,c. g. di arie well 01,active,permanent,well,groundwater,38.497018,-120.814963
CA0300448,NA,002,gold mine plaza new well,active,permanent,well,groundwater,38.407801,-120.648805
CA0300524,NA,001,mp associates well 02 #185807 raw,active,permanent,well,groundwater,38.307638,-120.900777
CA0300667,NA,002,golden valley camp well 01,active,permanent,well,groundwater,38.466748,-120.613445
CA0301038,NA,001,pardee reservoir - raw,active,permanent,intake,surface water,38.28182,-120.863677
CA0310001,NA,003,treated water from  awa-tanner,active,permanent,consecutive connection,surface water,38.381944,-120.786667
CA0310002,55,003,ione reservoir - raw,active,permanent,intake,surface water,38.351321,-120.92733
CA0310003,55,001,tanner reservoir - raw              xcld,active,permanent,intake,surface water,38.382211,-120.788948
CA0310004,NA,004,well a - standby,active,emergency,well,groundwater,38.474598,-120.833589
CA0310004,NA,005,hawksview well - standby,active,emergency,well,groundwater,38.481703,-120.83208
CA0310005,NA,004,"treated water from awa, cawp",active,permanent,consecutive connection,surface water,38.447222,-120.529167
CA0310006,NA,002,well 02,active,permanent,well,groundwater,38.544577,-120.74116
CA0310006,NA,009,well 06r - replacement,active,permanent,well,groundwater,38.543549,-120.746501
CA0310006,NA,012,well 03r,active,permanent,well,groundwater,38.324106,-120.442397
CA0310008,NA,002,well no. 02 - raw,active,permanent,well,groundwater,38.23615,-120.950677
CA0310008,NA,005,well no. 04 - raw,active,permanent,well,groundwater,38.237482,-120.947911
CA0310011,NA,005,cawp - treated,active,permanent,consecutive connection,surface water,38.446464,-120.530388
CA0310012,55,003,tiger creek reservoir - raw,active,permanent,intake,surface water,38.440792,-120.5053
CA0310018,NA,005,cawp - treated,active,permanent,consecutive connection,surface water,38.446464,-120.530388
CA0310019,55,001,well no. 01 - raw,active,permanent,well,groundwater,38.463897,-120.658075
CA0310019,55,003,well no. 02 - raw,active,permanent,well,groundwater,38.464178,-120.659896
CA0310021,55,001,well 06,active,permanent,well,groundwater,38.25114,-120.943718
CA0310021,55,003,well 12a (replaced well 12),active,permanent,well,groundwater,38.251897,-120.950147
CA0310021,55,008,well 14,active,permanent,well,groundwater,38.25828,-120.993059
CA0310300,NA,002,well no. 02,active,permanent,well,groundwater,38.421514,-120.644121
CA0310803,NA,001,well no. 01 - raw,active,permanent,well,groundwater,38.530817,-120.779659
CA0310804,NA,001,well no. 02,active,permanent,well,groundwater,38.533146,-120.776093
CA0310805,NA,001,well 01,active,permanent,well,groundwater,38.512454,-120.821514
CA0400001,NA,001,well #1,active,permanent,well,groundwater,39.84096,-121.777814
CA0400001,NA,004,well 02,active,permanent,well,groundwater,39.841006,-121.777795
CA0400003,NA,001,only well,active,permanent,well,groundwater,39.533194,-121.165139
CA0400004,NA,003,well c,active,permanent,well,groundwater,39.875302,-121.680744
CA0400007,NA,001,well #1 - located next to clubhouse,active,permanent,well,groundwater,38.307639,-120.900778
CA0400007,NA,002,well #2- oro chico,active,permanent,well,groundwater,39.67615,-121.771955
CA0400007,NA,005,well #3,active,permanent,well,groundwater,39.689083,-121.773676
CA0400008,NA,001,old well,active,permanent,well,groundwater,39.705991,-121.739658
CA0400008,NA,002,new well,active,permanent,well,groundwater,39.707059,-121.731942
CA0400010,NA,001,only well,active,permanent,well,groundwater,39.875486,-121.6118
CA0400012,NA,002,west aux well - located by soccer field,inactive,other,well,groundwater,39.36363,-121.648743
CA0400012,NA,005,well #3 - new well,active,permanent,well,groundwater,39.363314,-121.64895
CA0400013,NA,001,well #1 - by steel tank,active,permanent,well,groundwater,39.533194,-121.165138
CA0400013,NA,002,well #2 (by redwood tank),active,permanent,well,groundwater,39.36363,-121.648743
CA0400013,NA,004,well #4- drilled 2007,active,permanent,well,groundwater,39.53362,-121.16261
CA0400014,NA,001,well #1 - star road,active,permanent,well,groundwater,39.655833,-121.403388
CA0400014,NA,002,well #2 - panorama drive,active,permanent,well,groundwater,39.644361,-121.406075
CA0400014,NA,003,well #3 - galen,active,permanent,well,groundwater,39.652239,-121.399852
CA0400016,NA,001,well #1,active,permanent,well,groundwater,39.646027,-121.366083
CA0400016,NA,002,well #2,active,permanent,well,groundwater,39.625103,-121.375336
CA0400016,NA,005,well #5,active,permanent,well,groundwater,39.810609,-121.885539
CA0400019,NA,001,only well,active,permanent,well,groundwater,39.471111,-121.577833
CA0400020,NA,001,west well,active,permanent,well,groundwater,39.444138,-121.552277
CA0400020,NA,002,east well,active,permanent,well,groundwater,39.444117,-121.551971
CA0400021,NA,001,only well,active,permanent,well,groundwater,39.471111,-121.577833
CA0400023,NA,001,only well,active,permanent,well,groundwater,39.425577,-121.605478
CA0400026,NA,001,only well,active,permanent,well,groundwater,39.425577,-121.605478
CA0400027,NA,001,well #1,active,emergency,well,groundwater,39.660722,-121.629194
CA0400027,NA,003,well #3 - drilled 1999 (watson),active,permanent,well,groundwater,39.660603,-121.628179
CA0400030,NA,001,well #1 - outside well,active,permanent,well,groundwater,39.496444,-121.581583
CA0400030,NA,002,well #2 inside well,active,permanent,well,groundwater,39.496488,-121.581685
CA0400040,NA,002,main well aka pit well,active,permanent,well,groundwater,39.455555,-121.511944
CA0400042,NA,001,only well,active,permanent,well,groundwater,39.876277,-121.675333
CA0400051,NA,001,well #1,active,permanent,well,groundwater,38.476639,-121.013972
CA0400051,NA,002,well #2,active,permanent,well,groundwater,39.442053,-121.605583
CA0400060,NA,001,only well,active,permanent,well,groundwater,39.328861,-121.534694
CA0400060,NA,005,new well,active,interim,well,groundwater,39.328857,-121.53468
CA0400062,NA,001,main well,active,permanent,well,groundwater,39.872332,-121.609673
CA0400063,NA,002,well #2 drilled 1997,active,permanent,well,groundwater,39.334907,-121.658033
CA0400064,NA,002,well #4,active,permanent,well,groundwater,39.732027,-121.527654
CA0400065,NA,002,north well,active,permanent,well,groundwater,39.390278,-121.334444
CA0400067,NA,001,only well,active,permanent,well,groundwater,39.382944,-121.610305
CA0400070,NA,001,well #1,active,permanent,well,groundwater,39.650222,-121.651472
CA0400070,NA,002,well #2,active,permanent,well,groundwater,38.481031,-121.010336
CA0400070,NA,003,well #3,active,permanent,well,groundwater,39.533002,-121.165779
CA0400073,NA,003,well #3 drilled 2020,active,permanent,well,groundwater,39.780529,-121.954988
CA0400078,NA,001,main well - drilled 1990,active,permanent,well,groundwater,39.869244,-121.671245
CA0400079,NA,001,only well,active,permanent,well,groundwater,39.650222,-121.651472
CA0400081,NA,001,well #4,inactive,permanent,well,groundwater,NA,NA
CA0400081,NA,004,well#4 - next to noors property,inactive,permanent,well,groundwater,39.638368,-121.458422
CA0400081,NA,007,well #7,inactive,permanent,well,groundwater,39.632395,-121.453933
CA0400090,NA,002,well #2 - main well drilled 1988,active,permanent,well,groundwater,39.876388,-121.676055
CA0400091,NA,001,only well,active,permanent,well,groundwater,39.776862,-121.691288
CA0400093,NA,001,only well,active,permanent,well,groundwater,40.080537,-121.551067
CA0400103,NA,001,only well,active,permanent,well,groundwater,39.894389,-121.748444
CA0400105,NA,001,only well,active,permanent,well,groundwater,39.318045,-121.799404
CA0400106,NA,001,only well,active,permanent,well,groundwater,39.497472,-121.582611
CA0400111,NA,001,only well,active,permanent,well,groundwater,39.480324,-121.577002
CA0400117,NA,001,deep well - well drilled 1986-main well,active,permanent,well,groundwater,39.431833,-121.604638
CA0400120,NA,001,only well,active,permanent,well,groundwater,39.767694,-121.781527
CA0400123,NA,001,only well,active,permanent,well,groundwater,39.851138,-121.690083
CA0400132,NA,001,well #1 - old well not 1988 well,active,permanent,well,groundwater,39.306527,-121.881472
CA0400133,NA,004,well #2,active,permanent,well,groundwater,39.300277,-121.445555
CA0400135,NA,002,new well,active,permanent,well,groundwater,39.384444,-121.4625
CA0400137,NA,001,only well,active,permanent,well,groundwater,39.58544,-121.11899
CA0400138,NA,001,well #1,active,permanent,well,groundwater,39.58864,-121.09098
CA0400140,NA,001,main well,active,permanent,well,groundwater,39.644289,-121.720372
CA0400141,NA,001,only well,active,permanent,well,groundwater,39.608055,-121.953638
CA0400142,NA,001,only well,active,permanent,well,groundwater,40.09413,-121.552342
CA0400143,NA,002,new well drilled 1997,active,permanent,well,groundwater,40.079064,-121.560613
CA0400144,NA,002,well 1- front by entrance,active,permanent,well,groundwater,40.102778,-121.499167
CA0400149,NA,001,well,active,permanent,well,groundwater,40.09413,-121.552342
CA0400149,NA,Not Available,humboldt woodlands mwc,not available,permanent,non-purchased,groundwater,NA,NA
CA0400150,NA,004,new well,active,permanent,well,groundwater,39.702641,-121.770988
CA0400151,NA,001,limousin drive well,active,permanent,well,groundwater,39.809833,-121.882555
CA0400151,NA,002,kelsey drive well,active,permanent,well,groundwater,39.810592,-121.885492
CA0400154,NA,001,well #1 located by speedway ave - 1983,active,permanent,well,groundwater,39.706416,-121.799805
CA0400155,NA,001,only well,active,permanent,well,groundwater,34.217825,-114.208476
CA0400158,NA,001,well #1,active,permanent,well,groundwater,39.306528,-121.881472
CA0400160,NA,001,well #1,active,permanent,well,groundwater,39.77175,-121.780277
CA0400161,NA,001,well #1,active,permanent,well,groundwater,38.43,-120.07
CA0400162,NA,001,well #1,active,permanent,well,groundwater,39.793722,-121.892722
CA0400166,NA,001,well - drilled 1991,active,permanent,well,groundwater,34.493833,-117.150889
CA0400169,NA,001,only well,active,permanent,well,groundwater,39.32262,-121.678603
CA0405001,NA,001,lime saddle treatment plant - raw,active,permanent,intake,surface water,39.675606,-121.556509
CA0405001,NA,011,pid intertie,active,permanent,consecutive connection,surface water,39.734219,-121.573339
CA0405002,NA,001,well 01,active,permanent,well,groundwater,39.492337,-121.668397
CA0405003,NA,001,well 01,active,permanent,well,groundwater,39.716884,-121.811536
CA0409177,NA,001,north,active,permanent,well,groundwater,39.747887,-121.89433
CA0409179,NA,001,well,active,permanent,well,groundwater,39.566583,-121.904944
CA0409181,NA,001,main well,active,permanent,well,groundwater,39.738298,-121.656876
CA0409181,NA,002,well 002,active,permanent,well,groundwater,39.740555,-121.656111
CA0409183,NA,001,north well,active,permanent,well,groundwater,39.805018,-121.877991
CA0409183,NA,002,south well,active,permanent,well,groundwater,39.798915,-121.881302
CA0409184,NA,001,only well,active,permanent,well,groundwater,39.748014,-121.8866
CA0409187,NA,001,well,active,permanent,well,groundwater,39.557124,-121.643481
CA0409188,NA,001,well,active,permanent,well,groundwater,39.648391,-121.724579
CA0409189,NA,001,well,active,permanent,well,groundwater,39.701027,-121.791972
CA0409190,NA,001,well,active,permanent,well,groundwater,39.754583,-121.616805
CA0409192,NA,001,well,active,permanent,well,groundwater,39.790163,-121.893128
CA0409193,NA,001,well #1,active,permanent,well,groundwater,39.350251,-121.714861
CA0409194,NA,001,well,active,permanent,well,groundwater,39.640357,-121.722959
CA0409195,NA,001,well 01,active,permanent,well,groundwater,39.767247,-121.511783
CA0409196,NA,001,well-01,active,permanent,well,groundwater,39.439361,-121.538585
CA0409197,NA,001,well,active,permanent,well,groundwater,39.722664,-121.816881
CA0410001,NA,002,well 01 (bertha),active,permanent,well,groundwater,39.413205,-121.713594
CA0410001,NA,004,well 03 - henry,active,permanent,well,groundwater,39.41065,-121.70508
CA0410001,NA,008,willard well replacement - standby,active,emergency,well,groundwater,39.41513,-121.70641
CA0410002,388,067,s1 extraction well (cmw101b - high pce),active,permanent,well,groundwater,39.73526,-121.839867
CA0410002,388,070,s2 extraction well (cmw117b - high pce),active,permanent,well,groundwater,39.734777,-121.839107
CA0410002,388,Not Available,blah,not available,emergency,purchased,groundwater,NA,NA
CA0410003,NA,003,well 03,active,permanent,well,groundwater,39.645276,-121.802173
CA0410003,NA,004,well 04,active,permanent,well,groundwater,39.648884,-121.809225
CA0410003,NA,005,well 05,active,permanent,well,groundwater,39.636707,-121.802719
CA0410004,NA,001,fairview drive well - standby,active,emergency,well,groundwater,39.363681,-121.68575
CA0410004,NA,005,wilson st. well - standby,active,emergency,well,groundwater,39.363366,-121.691186
CA0410004,NA,016,eagle meadows well,active,permanent,well,groundwater,39.366177,-121.713677
CA0410005,412,008,well 10-01,active,permanent,well,groundwater,39.511326,-121.568664
CA0410005,412,014,oroville treatment plant - raw      xcld,active,permanent,intake,surface water,39.525969,-121.555119
CA0410006,2337,011,miners ranch plant - raw            xcld,active,permanent,intake,surface water,39.511154,-121.460663
CA0410007,1859,002,magalia reservoir - raw,active,permanent,intake,surface water,39.815635,-121.582964
CA0410007,1859,004,well at d tank,active,seasonal,well,groundwater,39.765138,-121.600541
CA0410008,2466,003,well 02,active,permanent,well,groundwater,39.502525,-121.593722
CA0410008,2466,005,well 04,active,permanent,well,groundwater,39.534733,-121.57518
CA0410008,2466,006,well 05,active,permanent,well,groundwater,39.5319,-121.574994
CA0410008,2466,008,treatment plant - raw               xcld,active,permanent,intake,surface water,39.531436,-121.574937
CA0410009,NA,002,well 01 - indian,active,permanent,well,groundwater,39.804252,-121.583194
CA0410009,NA,008,paradise pines intertie,active,permanent,consecutive connection,groundwater,39.81332,-121.58336
CA0410011,699,002,well 02 - magalia mine,active,permanent,well,groundwater,39.844408,-121.589636
CA0410011,699,005,well 04,active,permanent,well,groundwater,39.81236,-121.604823
CA0410011,699,015,new pid intertie,active,permanent,consecutive connection,surface water,39.81332,-121.58336
CA0410012,2337,003,bangor ditch - raw                  xcld,active,permanent,intake,surface water,39.392971,-121.410706
CA0410018,NA,002,stirling city creek - raw           xcld,active,permanent,intake,surface water,39.915101,-121.539519
CA0500003,NA,003,water treatment plant - well 01,active,permanent,well,groundwater,38.164665,-120.810271
CA0500007,NA,001,well 01,active,permanent,well,groundwater,38.141391,-120.501037
CA0500009,NA,001,well 01,active,permanent,well,groundwater,38.049833,-120.52875
CA0500016,NA,001,well 01,active,permanent,well,groundwater,39.706417,-121.799806
CA0500019,NA,001,well 01,active,permanent,well,groundwater,38.049833,-120.52875
CA0500019,NA,004,well 04,active,permanent,well,groundwater,38.191224,-120.446949
CA0500019,NA,005,well 05,active,permanent,well,groundwater,38.190551,-120.444844
CA0500021,NA,001,well 01 - abandoned,active,permanent,well,groundwater,38.426533,-120.093159
CA0500022,NA,001,well 01 - fire well - abandoned,active,permanent,well,groundwater,38.190315,-120.441794
CA0500023,NA,001,source 01 - spring,active,seasonal,spring,groundwater,38.441194,-120.092325
CA0500026,NA,004,source 04 - well 03 - production well,active,permanent,well,groundwater,38.378116,-120.457791
CA0500027,NA,001,well 01,active,permanent,well,groundwater,38.442805,-120.428527
CA0500027,NA,002,well 02,active,permanent,well,groundwater,38.442492,-120.428403
CA0500028,NA,003,well 03 - new well,active,permanent,well,groundwater,38.447977,-120.07332100000001
CA0500029,NA,001,spring 01,active,seasonal,spring,groundwater under the direct influence of surface water,38.441341,-120.080173
CA0500032,NA,001,gloryhole well 01,active,permanent,well,groundwater,38.00171,-120.544472
CA0500039,NA,001,well 01 - production well,active,permanent,well,groundwater,38.00171,-120.544472
CA0500043,NA,001,well 01,active,permanent,well,groundwater,38.422269,-120.046861
CA0500044,NA,002,source 02 - well 01,active,permanent,well,groundwater,38.4162,-120.1089
CA0500050,NA,002,well 01,active,other,well,groundwater,38.026,-120.7613
CA0500053,NA,001,pardee reservoir - raw,active,permanent,intake,surface water,38.246697,-120.843034
CA0500055,NA,002,source 02 - well 01,active,permanent,well,groundwater,38.412078,-120.079636
CA0500057,NA,002,source 02 - well 01,active,permanent,well,groundwater,38.2042,-120.5103
CA0500068,NA,002,well 02 - big well,active,permanent,well,groundwater,38.383006,-120.537856
CA0500068,NA,003,well 03 - small well,active,permanent,well,groundwater,38.383093,-120.537894
CA0500069,NA,001,well 01,active,permanent,well,groundwater,38.183047,-120.88384
CA0500075,NA,004,well 04 - primary well,active,permanent,well,groundwater,38.312445,-120.505985
CA0500082,NA,002,well 02,active,permanent,well,groundwater,38.044366,-120.521905
CA0500084,NA,001,well 01,active,permanent,well,groundwater,38.446888,-120.066666
CA0500085,NA,001,well 01 - destroyed,active,permanent,well,groundwater,38.2134,-120.7573
CA0500085,NA,003,well 03 - production well,active,permanent,well,groundwater,38.2126,-120.7553
CA0500085,NA,004,well 04 - production well,active,permanent,well,groundwater,38.213,-120.7552
CA0500088,NA,001,well 01 - production well,active,permanent,well,groundwater,38.070872,-120.465911
CA0500090,NA,001,well 01,active,permanent,well,groundwater,38.354277,-120.584722
CA0500091,NA,002,"well 02 - production well, deepened",active,permanent,well,groundwater,38.174485,-120.533666
CA0500091,NA,006,well 04 - new well,active,permanent,well,groundwater,38.174092,-120.533918
CA0500091,NA,007,san antonio creek - surface water,active,seasonal,intake,surface water,38.168,-120.528
CA0500095,NA,001,well 01 - production well,inactive,other,well,groundwater,38.040502,-120.533342
CA0500095,NA,008,well 08 - production,active,permanent,well,groundwater,38.043636,-120.528656
CA0500097,NA,001,well 01,active,permanent,well,groundwater,38.208461,-120.767892
CA0500099,NA,003,well 03 - production well,active,permanent,well,groundwater,38.0976,-120.6618
CA0500102,NA,001,well 01,active,permanent,well,groundwater,38.0152,-120.5283
CA0500103,NA,001,well 01- destroyed,active,permanent,well,groundwater,38.1133,-120.9013
CA0500104,NA,002,well 02,active,permanent,well,groundwater,38.183087,-120.891257
CA0500105,NA,001,well 01,active,permanent,well,groundwater,38.2326,-120.6596
CA0500106,NA,002,well 1,active,permanent,well,groundwater,38.2283,-120.5427
CA0500107,NA,002,well 1,active,permanent,well,groundwater,38.208356,-120.698105
CA0510001,NA,001,utica rep. at angels - raw,active,permanent,intake,surface water,38.146414,-120.432742
CA0510002,NA,001,jeff davis reservoir-raw,active,permanent,intake,surface water,38.343334,-120.542757
CA0510003,NA,001,city of angels - raw,active,permanent,intake,surface water,38.095115,-120.536072
CA0510004,351,001,san antonio creek - raw,active,permanent,intake,surface water,38.17031,-120.469886
CA0510005,351,001,bear creek - raw,active,permanent,intake,surface water,38.406896,-120.514305
CA0510005,351,003,mokelumne river - raw,active,permanent,intake,surface water,38.406896,-120.514305
CA0510006,351,001,calaveras river - raw,active,permanent,intake,surface water,38.150556,-120.831111
CA0510009,NA,008,hunters reservoir - treated,active,permanent,consecutive connection,surface water,38.2,-120.3625
CA0510009,NA,010,well no. 03 - raw,active,permanent,well,groundwater,38.273741,-120.337905
CA0510009,NA,012,well no. 04 - raw,active,permanent,well,groundwater,38.267032,-120.339702
CA0510010,NA,004,well no. 04,active,permanent,well,groundwater,38.20504,-120.827637
CA0510010,NA,008,well no. 06,active,permanent,well,groundwater,38.206554,-120.825593
CA0510011,NA,002,hunters reservoir - treated,active,permanent,consecutive connection,surface water,38.2,-120.3625
CA0510012,NA,002,camanche lake - raw,active,permanent,intake,surface water,38.220984,-120.924453
CA0510012,NA,003,pardee reservoir - raw,active,permanent,intake,surface water,38.24692,-120.8403
CA0510016,351,001,hunters reservoir - raw,active,permanent,intake,surface water,38.198743,-120.363448
CA0510016,351,003,mckays point dam - raw,active,permanent,intake,surface water,38.244444,-120.288889
CA0510016,351,004,utica rep. at angels - raw,active,permanent,intake,surface water,38.095115,-120.536072
CA0510017,351,001,tulloch reservoir - raw,active,permanent,intake,surface water,37.90773,-120.615422
CA0510019,351,002,well no. 02 - raw,active,permanent,well,groundwater,38.202325,-120.966396
CA0510019,351,003,well no. 03 - raw,active,permanent,well,groundwater,38.199831,-120.971221
CA0600001,NA,001,well 01,active,permanent,well,groundwater,39.19442,-121.9374
CA0600003,NA,001,well 01,active,permanent,well,groundwater,39.069781,-121.87801
CA0600005,NA,001,well 01,active,permanent,well,groundwater,39.384719,-122.556461
CA0600008,NA,001,well 01,active,permanent,well,groundwater,39.072094,-121.89445
CA0600008,NA,004,well 02 - standby,active,emergency,well,groundwater,39.073077,-121.895258
CA0600009,NA,001,well 01,active,permanent,well,groundwater,39.209419,-121.987115
CA0600012,NA,002,gallery 01 - raw,active,permanent,intake,surface water,39.305528,-122.526856
CA0600012,NA,004,well 03 - raw,active,permanent,well,groundwater,39.306547,-122.531708
CA0600012,NA,010,well 06 - raw,active,permanent,well,groundwater,39.306336,-122.525908
CA0600012,NA,012,well 07 - raw,active,permanent,well,groundwater,39.306455,-122.531786
CA0600013,NA,001,well 01,active,permanent,well,groundwater,39.402826,-122.010084
CA0600013,NA,002,well 02,active,permanent,well,groundwater,39.409155,-122.009921
CA0600016,NA,006,bear creek spring,active,permanent,spring,groundwater,39.066705,-122.448605
CA0600027,NA,002,well 02,active,permanent,well,groundwater,39.361199,-121.927202
CA0600032,NA,002,well 02,active,permanent,well,groundwater,39.178439,-122.122237
CA0600033,NA,001,well 01,active,permanent,well,groundwater,39.408178,-122.1208
CA0600042,NA,001,well 01,inactive,permanent,well,groundwater,39.006776,-122.141299
CA0600050,NA,003,well 02,active,permanent,well,groundwater,39.242519,-122.183791
CA0600056,NA,001,well 01,active,permanent,well,groundwater,39.301594,-122.707962
CA0600065,NA,001,well 01 - raw,active,permanent,well,groundwater,39.185585,-121.999596
CA0600076,NA,002,horizontal well raw,active,permanent,well,groundwater,39.358034,-122.672443
CA0605002,NA,001,well 01 - raw,active,permanent,well,groundwater,39.126127,-122.125397
CA0605004,NA,002,well 02,active,permanent,well,groundwater,39.068685,-122.090965
CA0605005,NA,001,well 02,active,permanent,well,groundwater,39.141788,-122.132876
CA0605006,NA,003,well 02,active,permanent,well,groundwater,39.275808,-122.162061
CA0605007,NA,001,well 01,active,permanent,well,groundwater,38.960596,-122.018105
CA0605011,NA,001,well 1,active,permanent,well,groundwater,39.005033,-122.060478
CA0605011,NA,002,well 2,active,permanent,well,groundwater,39.005169,-122.060476
CA0605012,NA,002,well 03,active,permanent,well,groundwater,38.9307,-121.993091
CA0605013,NA,001,well 01,active,permanent,well,groundwater,39.031719,-122.099155
CA0605015,NA,001,well 01,active,permanent,well,groundwater,39.351636,-121.978097
CA0610001,NA,001,well 01,active,permanent,well,groundwater,39.012609,-122.055841
CA0610001,NA,002,well 02,active,permanent,well,groundwater,39.016765,-122.061723
CA0610001,NA,005,well 04 - raw,active,permanent,well,groundwater,39.016622,-122.071236
CA0610002,NA,002,well 02 - 8th & webster,active,permanent,well,groundwater,39.210731,-122.014039
CA0610002,NA,004,well 04 - colusa ave.,active,permanent,well,groundwater,39.201138,-122.020741
CA0610002,NA,006,well 06 - 10th & j,active,permanent,well,groundwater,39.214608,-122.014292
CA0610003,NA,003,well 04,active,permanent,well,groundwater,39.2765,-122.189442
CA0610003,NA,005,well 05                             xcld,active,permanent,well,groundwater,39.272212,-122.185939
CA0610004,NA,004,well 08 - raw,active,permanent,well,groundwater,39.152141,-122.146608
CA0610004,NA,011,well 10 - raw,active,permanent,well,groundwater,39.152027,-122.13548
CA0701706,NA,001,source,active,permanent,intake,surface water,37.809534,-121.748481
CA0701707,NA,001,source,active,permanent,intake,surface water,37.836641,-121.729059
CA0706004,NA,001,north well - 4992 sandmound,active,permanent,well,groundwater,37.996073,-121.625221
CA0706004,NA,005,south well 3 - 4508 sandmound,inactive,permanent,well,groundwater,37.990436,-121.62452
CA0706005,NA,001,well head,active,permanent,well,groundwater,38.018011,-121.64915
CA0706018,NA,001,well 01,active,permanent,well,groundwater,37.93834,-121.568438
CA0706022,NA,001,well head,active,permanent,well,groundwater,37.872023,-121.640592
CA0706027,NA,003,well 2,inactive,permanent,well,groundwater,37.872023,-121.640592
CA0706028,NA,002,south well,active,permanent,well,groundwater,37.967863,-121.661287
CA0706029,NA,001,well head,active,permanent,well,groundwater,37.876694,-121.640111
CA0706030,NA,001,well head,active,permanent,well,groundwater,38.037225,-121.672283
CA0706031,NA,001,well 01,active,permanent,well,groundwater,37.88987,-121.642344
CA0706032,NA,001,well head,active,permanent,well,groundwater,37.97198,-121.701368
CA0706034,NA,002,well 2 - east well,active,permanent,well,groundwater,37.973083,-121.583277
CA0706037,NA,001,well head,active,permanent,well,groundwater,38.020166,-121.627138
CA0706045,NA,001,well 01,active,permanent,well,groundwater,38.0159,-121.64005
CA0706049,NA,002,treatment,inactive,permanent,well,groundwater,37.889643,-121.640885
CA0706050,NA,001,well 1,active,permanent,well,groundwater,38.015399,-122.005339
CA0706054,NA,001,wellhead,active,permanent,well,groundwater,38.0155,-121.641305
CA0706056,NA,001,well head,active,permanent,well,groundwater,38.014091,-121.640804
CA0706059,NA,001,well 01,active,permanent,well,groundwater,37.990195,-121.667531
CA0706102,NA,001,well head,active,permanent,well,groundwater,38.014091,-121.640804
CA0706110,NA,001,well head,active,permanent,well,groundwater,37.829475,-121.62718
CA0706111,NA,001,well head,active,permanent,well,groundwater,37.797944,-122.043611
CA0706112,NA,001,well head,active,permanent,well,groundwater,37.869297,-121.750422
CA0707501,NA,001,well 02,active,permanent,well,groundwater,38.022504,-121.656869
CA0707502,NA,001,well,active,permanent,well,groundwater,37.970752,-121.860691
CA0707503,NA,001,well,active,permanent,well,groundwater,38.041085,-121.633475
CA0707507,NA,001,east well,active,permanent,well,groundwater,38.009457,-121.633016
CA0707507,NA,002,west well,active,permanent,well,groundwater,38.009515,-121.633199
CA0707509,NA,001,well,active,permanent,well,groundwater,38.015416,-121.64025
CA0707517,NA,001,well head,active,permanent,well,groundwater,37.902937,-121.687834
CA0707519,NA,001,well head,active,permanent,well,groundwater,38.011777,-121.655722
CA0707521,NA,001,well head,active,permanent,well,groundwater,37.829475,-121.62718
CA0707523,NA,001,well head,active,permanent,well,groundwater,38.019768,-121.613936
CA0707532,NA,001,well head,active,permanent,well,groundwater,38.039416,-121.96125
CA0707534,NA,001,well head,active,permanent,well,groundwater,38.01953,-121.614084
CA0707542,NA,001,well head,active,permanent,well,groundwater,37.911453,-121.903987
CA0707545,NA,002,well 2 - west well,active,permanent,well,groundwater,37.938171,-121.611577
CA0707545,NA,003,south well,active,permanent,well,groundwater,37.933473,-121.609811
CA0707547,NA,001,well head,active,permanent,well,groundwater,37.970936,-121.666742
CA0707550,NA,001,well head,active,permanent,well,groundwater,37.938167,-121.611556
CA0707553,NA,001,well head,active,permanent,well,groundwater,38.027475,-121.920702
CA0707556,NA,001,3160 stone road well,active,permanent,well,groundwater,38.013138,-121.638138
CA0707556,NA,002,3810 stone road well,inactive,permanent,well,groundwater,38.010708,-121.625542
CA0707564,NA,001,well head,active,permanent,well,groundwater,37.868888,-121.639638
CA0707568,NA,001,well head,active,permanent,well,groundwater,38.004498,-121.76176
CA0707569,NA,001,well 1 - 1204 taylor,active,permanent,well,groundwater,38.02725,-121.661861
CA0707569,NA,002,well 2 - 1616 taylor,active,permanent,well,groundwater,38.033581,-121.670389
CA0707569,NA,003,well 3 - 1850 taylor,active,permanent,well,groundwater,38.030372,-121.665725
CA0707570,NA,001,well head,active,permanent,well,groundwater,38.005277,-121.773472
CA0707572,NA,001,well 1,active,permanent,well,groundwater,38.013853,-121.638844
CA0707573,NA,001,east well,active,permanent,well,groundwater,38.001864,-121.627781
CA0707573,NA,002,west well,active,permanent,well,groundwater,38.001824,-121.627936
CA0707575,NA,002,new well,active,permanent,well,groundwater,38.020998,-121.6102
CA0707576,NA,001,well 1 - 4282 stone,active,permanent,well,groundwater,38.01415,-121.617384
CA0707576,NA,002,well  2 - 4520 stone,active,permanent,well,groundwater,38.015862,-121.613133
CA0707576,NA,003,well 3 - 4441 willow,active,permanent,well,groundwater,38.028016,-121.614355
CA0707577,NA,001,well 1 beacon harbor,active,permanent,well,groundwater,38.035846,-121.624778
CA0707577,NA,002,well 2 end of willow rd,active,permanent,well,groundwater,38.040103,-121.630949
CA0707585,NA,001,well head,active,permanent,well,groundwater,37.831697,-122.162733
CA0707588,NA,001,well head - west well,active,permanent,well,groundwater,37.991777,-121.69975
CA0707588,NA,002,wellhead- east well,active,permanent,well,groundwater,37.991226,-121.69883
CA0707589,NA,001,well head,active,permanent,well,groundwater,38.027,-121.9215
CA0707592,NA,001,well head,active,permanent,well,groundwater,38.026102,-121.613584
CA0707594,NA,001,well head,active,permanent,well,groundwater,38.012125,-121.850367
CA0707595,NA,001,well head,active,permanent,well,groundwater,37.85032,-121.622765
CA0707597,NA,001,well head,active,permanent,well,groundwater,38.006611,-121.629222
CA0707598,NA,001,well,active,permanent,well,groundwater,37.874137,-121.643476
CA0707601,NA,001,well head,active,permanent,well,groundwater,38.032248,-121.621701
CA0707603,NA,007,meter - ccwd,active,permanent,consecutive connection,surface water,37.893375,-121.793893
CA0707608,NA,002,new well,active,permanent,well,groundwater,38.009975,-121.635521
CA0707613,NA,001,well head,active,permanent,well,groundwater,38.036416,-121.627527
CA0707615,NA,001,well 01,active,permanent,well,groundwater,37.774567,-121.778214
CA0707615,NA,002,well 02,active,permanent,well,groundwater,37.774623,-121.778414
CA0707617,NA,001,well head,active,permanent,well,groundwater,37.852534,-122.077681
CA0707620,NA,001,well head,active,permanent,well,groundwater,37.827979,-122.16308
CA0707623,NA,001,well head,active,permanent,well,groundwater,37.836903,-122.174929
CA0707625,NA,003,well #7,active,permanent,well,groundwater,38.022825,-122.033306
CA0707630,NA,001,well,active,permanent,well,groundwater,38.043143,-121.634704
CA0707639,NA,001,well head,active,permanent,well,groundwater,37.890449,-122.005404
CA0707643,NA,001,well head,active,permanent,well,groundwater,37.947674,-122.132817
CA0707644,NA,001,well,active,permanent,well,groundwater,37.942663,-122.129675
CA0707800,NA,001,well 01,active,permanent,well,groundwater,37.784176,-121.863588
CA0707900,NA,001,wellhead,active,permanent,well,groundwater,37.818571,-121.795083
CA0707901,NA,002,hauled water,active,interim,"non-piped, purchased",surface water,37.871626,-122.208623
CA0707915,NA,001,well,active,permanent,well,groundwater,37.925907,-121.624071
CA0708000,NA,001,shoreline park well,active,permanent,well,groundwater,38.039835,-121.963601
CA0710001,82,003,antioch municipal reservoir,active,permanent,reservoir,surface water,37.97748,-121.80924
CA0710001,82,007,wilbur avenue treated water intertie,proposed - new,emergency,consecutive connection,surface water,38.012013,-121.751071
CA0710001,82,011,contra costa canal intake,active,permanent,consecutive connection,surface water,37.982222,-121.806397
CA0710001,82,012,city of pittsburg emergency intertie,proposed - new,emergency,consecutive connection,surface water,38.008064,-121.856279
CA0710002,1031,006,chadwick well 03,inactive,other,well,groundwater,38.020155,-121.944251
CA0710002,1031,007,ccwd port chicago intertie,active,permanent,consecutive connection,surface water,38.041501,-121.983284
CA0710002,1031,008,multi-purpose pipeline turnout,active,permanent,consecutive connection,surface water,38.022763,-121.956956
CA0710003,613,002,canal at clyde,active,permanent,reservoir,surface water,38.022774,-122.022469
CA0710003,613,020,martinez reservoir intake,active,permanent,consecutive connection,surface water,38.009661,-122.108649
CA0710004,264,008,well 8,active,permanent,well,groundwater,37.957817,-121.690832
CA0710004,264,023,mpp/randall-bold wtp connection,active,permanent,consecutive connection,surface water,37.970746,-121.732198
CA0710004,264,024,well 9,inactive,other,well,groundwater,37.955236,-121.687378
CA0710004,264,028,ccwd/brentwood wtp connection,active,permanent,consecutive connection,surface water,37.981457,-121.734851
CA0710006,1554,002,martinez reservoir intake,active,permanent,consecutive connection,surface water,38.009661,-122.108649
CA0710006,1554,007,ccwd pacheco intertie,active,emergency,consecutive connection,surface water,38.01332,-122.114317
CA0710006,1554,008,ccwd elderwood intertie,active,emergency,consecutive connection,surface water,37.969756,-122.101851
CA0710007,731,002,corp yard well 01 - standby,active,emergency,well,groundwater,37.995911,-121.703199
CA0710007,731,006,south park well - standby,active,emergency,well,groundwater,37.988046,-121.638139
CA0710007,731,009,stonecreek well,active,permanent,well,groundwater,37.978152,-121.684101
CA0710008,1925,005,bodega well,active,permanent,well,groundwater,38.019589,-121.909682
CA0710008,1925,017,dover well,active,permanent,well,groundwater,38.019353,-121.906247
CA0710009,739,002,well 02,active,permanent,well,groundwater,37.903779,-121.601863
CA0710009,739,008,well 01b,active,permanent,well,groundwater,37.910276,-121.59949400000001
CA0710009,739,018,well 08,proposed,other,well,groundwater,37.904106,-121.613751
CA0710010,NA,001,contra costa canal intake,active,permanent,consecutive connection,surface water,37.983655,-121.735783
CA0710010,NA,005,multi-purpose pipeline,active,permanent,consecutive connection,surface water,37.98109,-121.737093
CA0710011,NA,001,contra costa canal intake,active,permanent,consecutive connection,surface water,37.983655,-121.735783
CA0710300,NA,004,spring 01,active,permanent,spring,groundwater,37.878689,-121.914687
CA0710800,NA,001,california aqueduct,active,permanent,intake,surface water,37.8,-121.633333
CA0800526,NA,001,well 01                             xcld,active,permanent,well,groundwater,41.575194,-124.066962
CA0800526,NA,002,well 02                             xcld,active,permanent,well,groundwater,41.575217,-124.066908
CA0800526,NA,003,well 03 - outside - representative,active,permanent,well,groundwater,41.575224,-124.066872
CA0800532,NA,001,smith river infiltration gallery,active,permanent,well,groundwater,41.789707,-124.068578
CA0800542,NA,003,newest well - representative,active,permanent,well,groundwater,41.74129,-124.165293
CA0800548,NA,001,well 02                             xcld,active,permanent,well,groundwater,41.527765,-124.039111
CA0800548,NA,002,hwy 101 well 01 - represents 1 & 2,active,permanent,well,groundwater,41.527687,-124.039034
CA0800548,NA,003,well 03 - green diamond - raw,active,permanent,well,groundwater,41.524561,-124.026672
CA0800552,NA,001,old section well                    xcld,active,permanent,well,groundwater,41.78095,-124.199349
CA0800552,NA,002,new section well - represents old & new,active,permanent,well,groundwater,41.781029,-124.2006
CA0800555,NA,001,north fork smith river,active,permanent,intake,surface water,41.848107,-123.968741
CA0800556,NA,002,well 03 - alpine court,active,permanent,well,groundwater,41.819881,-124.101042
CA0800557,NA,001,well 01,active,permanent,well,groundwater,41.57796,-124.04478
CA0800557,NA,Not Available,hunter valley community service district,not available,permanent,purchased,groundwater,NA,NA
CA0800603,NA,001,well 01,active,permanent,well,groundwater,41.765894,-124.205968
CA0800605,NA,001,well 02 - main,active,permanent,well,groundwater,41.781063,-124.196232
CA0800608,NA,003,well 01 - raw,active,permanent,well,groundwater,41.583741,-124.08624
CA0800613,NA,002,well 01 - raw -  abandoned,inactive,permanent,well,groundwater,41.520406,-123.991908
CA0800615,NA,001,well 01 - primary,active,permanent,well,groundwater,41.521712,-124.036588
CA0800622,NA,001,well 01,active,permanent,well,groundwater,41.543944,-124.047086
CA0800627,NA,001,well 01,active,permanent,well,groundwater,41.539888,-124.042739
CA0800632,NA,001,well 01,active,permanent,well,groundwater,41.515995,-124.03739
CA0800635,NA,002,well 1 - east well by tanks,active,permanent,well,groundwater,41.529755,-124.050502
CA0800647,NA,001,well 02,active,permanent,well,groundwater,41.870431,-124.150195
CA0800649,NA,001,well 01,active,permanent,well,groundwater,41.556764,-124.050905
CA0800661,NA,002,well 01 - raw,active,permanent,well,groundwater,41.968684,-123.747184
CA0800700,NA,004,well 05 by fire tank - representative,active,permanent,well,groundwater,41.776959,-124.19593
CA0800700,NA,005,well 04 - lift station - raw        xcld,active,permanent,well,groundwater,41.778116,-124.195581
CA0800800,NA,001,well 01,active,permanent,well,groundwater,41.785547,-124.198677
CA0800825,NA,001,treatment house well 1-raw representativ,active,permanent,well,groundwater,41.839317,-124.107073
CA0800825,NA,002,well 02 - inside well               xcld,active,permanent,well,groundwater,41.840226,-124.108238
CA0800825,NA,003,well 03,active,permanent,well,groundwater,41.8987,-124.1077
CA0800850,NA,002,well 01 - raw,active,permanent,well,groundwater,41.864627,-124.150466
CA0800861,NA,001,well,inactive,permanent,well,groundwater,41.921775,-124.162828
CA0810001,649,001,smith river - ranney well,active,permanent,well,groundwater,41.869901,-124.123842
CA0810002,NA,001,well 01                             xcld,active,permanent,well,groundwater,41.922963,-124.145307
CA0810002,NA,003,well 03                             xcld,active,permanent,well,groundwater,41.923061,-124.145323
CA0810002,NA,004,well 04                             xcld,active,permanent,well,groundwater,41.923092,-124.145187
CA0810003,NA,001,smith river-purchased water-treated xcld,active,permanent,consecutive connection,groundwater,41.869722,-124.122778
CA0810300,NA,001,mill creek cg - infiltration gallery,inactive,seasonal,intake,surface water,41.695709,-124.093391
CA0810303,NA,002,chlorine shack well,active,permanent,well,groundwater,41.799444,-121.085278
CA0810500,NA,001,lagoon creek well,active,permanent,well,groundwater,41.594226,-124.098909
CA0810800,NA,001,baseball field well - standby,active,emergency,well,groundwater,41.498605,-124.059811
CA0900100,NA,001,well #1-lodge,active,permanent,well,groundwater,38.662552,-120.605714
CA0900102,NA,004,well 3 west of river,active,permanent,well,groundwater,38.559621,-120.846927
CA0900103,NA,001,well,active,permanent,well,groundwater,38.768444,-120.314583
CA0900104,NA,001,well,active,permanent,well,groundwater,38.602581,-120.720009
CA0900105,NA,001,well #1 (east well),active,permanent,well,groundwater,38.646861,-120.684972
CA0900107,NA,001,well,active,permanent,well,groundwater,38.61058,-120.703025
CA0900109,NA,001,well 01,active,permanent,well,groundwater,38.94306,-120.765008
CA0900111,NA,001,well 1-main parking lot,active,permanent,well,groundwater,38.937295,-120.73983
CA0900111,NA,003,well 2-storage tanks,active,permanent,well,groundwater,38.606245,-120.713419
CA0900112,NA,001,well 1 = 16 gpm,active,permanent,well,groundwater,37.868889,-121.639639
CA0900112,NA,002,well 2 = 10 gpm,active,permanent,well,groundwater,38.602405,-120.721036
CA0900112,NA,003,well 3 = 10.5 gpm,active,permanent,well,groundwater,38.603103,-120.721668
CA0900113,NA,001,well #1-stables,active,permanent,well,groundwater,38.606361,-120.515472
CA0900116,NA,001,well 1- upper lode 10505018,active,permanent,well,groundwater,38.826073,-120.941112
CA0900118,NA,001,well,active,permanent,well,groundwater,38.606361,-120.515472
CA0900120,NA,001,cody creek,active,permanent,intake,surface water,38.781111,-120.151986
CA0900121,NA,001,well 01,active,seasonal,well,groundwater,38.871001,-120.44076
CA0900122,NA,001,well 001,active,permanent,well,groundwater,38.609878,-120.702424
CA0900204,NA,008,well #3-dam road,active,permanent,well,groundwater,38.771029,-120.816662
CA0900205,NA,001,well #1-upper parking lot,active,permanent,well,groundwater,38.8065,-120.921611
CA0900206,NA,001,well,active,permanent,well,groundwater,38.937295,-120.73983
CA0900208,NA,004,well 02,active,permanent,well,groundwater,38.56971,-120.42783
CA0900210,NA,007,well 3--ball field,active,permanent,well,groundwater,38.556915,-120.992417
CA0900210,NA,008,well 4--east of school parcel,active,emergency,well,groundwater,38.555243,-120.987174
CA0900210,NA,011,well #5,active,emergency,well,groundwater,38.55543,-120.989723
CA0900212,NA,001,well,active,permanent,well,groundwater,38.802586,-120.90924
CA0900213,NA,001,well 1 west front,active,permanent,well,groundwater,38.826944,-120.941722
CA0900214,NA,001,well,active,permanent,well,groundwater,38.885727,-120.400017
CA0900216,NA,001,well #1,active,permanent,well,groundwater,38.593988,-120.659842
CA0900219,NA,001,drilled well #1,active,permanent,well,groundwater,38.79925,-120.910805
CA0900300,NA,001,stream-no. of us 50,active,permanent,intake,surface water,38.777991,-120.293172
CA0900300,NA,004,well #1,active,emergency,well,groundwater,38.776,-120.294
CA0900301,NA,001,drilled well #1,active,permanent,well,groundwater,38.7677,-120.3101
CA0900303,NA,002,well #2-apn 012-171-21,active,permanent,well,groundwater,38.771716,-120.311086
CA0900304,NA,001,well,active,permanent,well,groundwater,38.77275,-120.311083
CA0900306,NA,001,well #1-harmony house,active,permanent,well,groundwater,38.92025,-120.690027
CA0900307,NA,001,spring 1,active,permanent,spring,groundwater,38.76858,-120.433962
CA0900308,NA,001,spring,active,permanent,spring,groundwater,38.905906,-120.672674
CA0900309,NA,001,well #1-service yard,active,permanent,well,groundwater,38.604111,-120.714333
CA0900309,NA,002,well #2 east,active,permanent,well,groundwater,38.604977,-120.715275
CA0900309,NA,004,well #4-upper playing field,active,permanent,well,groundwater,38.603651,-120.714281
CA0900311,NA,001,well,active,permanent,well,groundwater,38.807585,-120.903726
CA0900314,NA,001,well,active,permanent,well,groundwater,38.814086,-120.37411
CA0900316,NA,001,well,active,permanent,well,groundwater,38.897055,-120.382361
CA0900317,NA,004,drilled well 2-2008,active,permanent,well,groundwater,38.945,-120.732222
CA0900319,NA,001,drilled well #1,active,permanent,well,groundwater,38.555198,-120.727383
CA0900401,NA,001,drilled well #2,active,permanent,well,groundwater,38.657,-120.604
CA0900404,NA,001,well,active,permanent,well,groundwater,38.665055,-120.947333
CA0900410,NA,002,well #2 southeast,active,permanent,well,groundwater,38.559578,-120.981593
CA0900411,NA,003,well #2-drilled in 2000,active,permanent,well,groundwater,38.800469,-120.910054
CA0900419,NA,001,well #1-main camp,active,permanent,well,groundwater,38.820861,-120.935388
CA0900420,NA,001,well,active,seasonal,well,groundwater,38.92,-120.38
CA0900422,NA,001,well #5 by storage tank,active,permanent,well,groundwater,38.589722,-120.657388
CA0900423,NA,001,well,active,permanent,well,groundwater,38.807585,-120.903726
CA0900502,NA,001,well 01,active,permanent,well,groundwater,38.811555,-120.124361
CA0900505,NA,001,well 01,active,permanent,well,groundwater,38.930395,-120.068321
CA0900506,NA,004,well 04/1990 standby,active,emergency,well,groundwater,38.931002,-120.084867
CA0900507,NA,001,creek 01,active,permanent,intake,surface water,38.880659,-120.070219
CA0900511,NA,001,spring 01,active,permanent,spring,groundwater,38.881631,-120.077434
CA0900515,NA,001,spring 01,active,permanent,spring,groundwater,38.863953,-120.071828
CA0900516,NA,001,sayles creek,active,permanent,intake,surface water,38.832788,-120.044636
CA0900523,NA,001,well 01,active,permanent,well,groundwater,38.949,-120.08525
CA0900525,NA,001,spring 01,active,permanent,spring,groundwater,38.832788,-120.044636
CA0900529,NA,001,well 01,active,permanent,well,groundwater,38.957944,-119.948388
CA0900535,NA,001,well 01/laundry rm,active,permanent,well,groundwater,38.950972,-119.951361
CA0900536,NA,004,well 02/annex,active,permanent,well,groundwater,38.951382,-119.948875
CA0900549,NA,001,well 01,active,permanent,well,groundwater,38.804461,-120.102938
CA0900551,NA,001,well 01,active,permanent,well,groundwater,38.952333,-119.947667
CA0900553,NA,001,well 01,active,permanent,well,groundwater,38.945722,-119.963861
CA0900554,NA,001,well 01,active,permanent,well,groundwater,38.952027,-119.948472
CA0900560,NA,001,well 01,active,permanent,well,groundwater,38.945778,-119.962806
CA0900562,NA,001,well 01,active,permanent,well,groundwater,38.941833,-119.958805
CA0900564,NA,001,well 01,active,permanent,well,groundwater,38.941916,-119.954555
CA0900565,NA,001,well 01,active,permanent,well,groundwater,38.919027,-119.997055
CA0900576,NA,001,well 01,active,permanent,well,groundwater,38.960944,-119.945083
CA0900582,NA,001,well 01,active,permanent,well,groundwater,38.906944,-119.999722
CA0900585,NA,001,well 01,active,permanent,well,groundwater,38.927,-119.982583
CA0900587,NA,001,well 01,active,permanent,well,groundwater,38.924361,-119.914277
CA0900592,NA,001,well 01,active,permanent,well,groundwater,38.820861,-120.935389
CA0900603,NA,001,spring 01,active,permanent,spring,groundwater,38.848363,-120.068673
CA0900623,NA,001,well 01,active,permanent,well,groundwater,38.946222,-119.961972
CA0900624,NA,001,well 01,active,permanent,well,groundwater,38.941152,-119.954296
CA0900629,NA,001,well 01,active,permanent,well,groundwater,38.939055,-119.974527
CA0900631,NA,001,well 01,active,permanent,well,groundwater,38.927277,-120.0615
CA0900641,NA,001,fallen leaf lake,active,permanent,intake,surface water,38.88867,-120.058507
CA0900643,NA,001,well 01,active,permanent,well,groundwater,38.807472,-120.107222
CA0900649,NA,001,well 01,active,permanent,well,groundwater,38.937805,-120.045638
CA0900650,NA,006,lake intake,active,permanent,intake,surface water,38.834813,-120.044365
CA0900651,NA,001,well 01,active,permanent,well,groundwater,38.80825,-120.103861
CA0900652,NA,001,h well 01/50 m of tank,active,permanent,well,groundwater,38.832699,-120.046603
CA0900654,NA,001,well 01,active,permanent,well,groundwater,38.940643,-120.06325
CA0900656,NA,001,well 01,active,permanent,well,groundwater,38.944167,-119.954889
CA0900658,NA,001,well 01,active,permanent,well,groundwater,38.79375,-120.065444
CA0900659,NA,001,"well 01/""big well"" (west)",active,permanent,well,groundwater,38.798805,-120.080388
CA0900660,NA,001,well 01,active,permanent,well,groundwater,38.926027,-119.925
CA0900664,NA,001,well 01,active,permanent,well,groundwater,38.800416,-120.095916
CA0900665,NA,001,well 01,active,permanent,well,groundwater,38.934489,-119.911468
CA0901217,NA,001,spring,active,permanent,spring,groundwater,38.958055,-120.703333
CA0901217,NA,002,well 1-near fire house,active,emergency,well,groundwater,38.972777,-120.717916
CA0901217,NA,003,well 2-denney parcel,active,emergency,well,groundwater,38.972521,-120.717294
CA0901222,NA,004,well #3-drilled 2002,active,permanent,well,groundwater,38.753531,-120.266392
CA0901223,NA,003,well 2-drilled 1998,active,permanent,well,groundwater,38.781487,-120.424323
CA0901228,NA,001,well #1-horizontal,active,permanent,well,groundwater,38.977322,-120.393487
CA0901229,NA,001,well,active,permanent,well,groundwater,38.833483,-120.364775
CA0901230,NA,001,well,active,permanent,well,groundwater,38.982844,-120.3162
CA0901232,NA,001,well #1-horizontal,active,permanent,well,groundwater,39.001694,-120.315027
CA0901239,NA,001,well #1-horizontal,active,permanent,well,groundwater,38.766888,-120.324555
CA0901243,NA,001,drilled well 1,active,permanent,well,groundwater,38.700111,-120.207861
CA0901244,NA,001,well,active,permanent,well,groundwater,38.903166,-120.591916
CA0901246,NA,001,well,active,permanent,well,groundwater,38.867805,-120.392888
CA0901247,NA,001,horizontal wells 1 & 2,inactive,other,well,groundwater,38.895291,-120.393878
CA0901248,NA,001,well #1-horizontal,active,permanent,well,groundwater,38.700111,-120.207861
CA0901249,NA,001,well #1-drilled 2001,active,permanent,well,groundwater,38.889027,-120.369472
CA0901250,NA,003,well #1,active,permanent,well,groundwater,38.987619,-120.384478
CA0901260,NA,001,cody creek,active,permanent,intake,surface water,38.780443,-120.152386
CA0910001,816,002,el dorado hills wtp - raw,active,permanent,intake,surface water,38.723415,-121.086638
CA0910001,816,003,reservoir a wtp - raw,active,permanent,intake,surface water,38.713496,-120.596415
CA0910001,816,004,reservoir 01 wtp - raw,active,permanent,intake,surface water,38.753374,-120.611997
CA0910002,2348,001,airport well - raw - standby,active,emergency,well,groundwater,38.902892,-119.994828
CA0910002,2348,036,sunset well raw,active,permanent,well,groundwater,38.925055,-119.992002
CA0910002,2348,042,al tahoe well 02 raw,active,permanent,well,groundwater,38.933333,-119.98055600000001
CA0910002,2348,057,valhalla well raw,active,permanent,well,groundwater,38.935798,-120.043816
CA0910003,NA,004,carson road (eid act 61409)         xcld,active,permanent,consecutive connection,surface water,38.738166,-120.779055
CA0910003,NA,005,aggregate way (eid act 61417)       xcld,active,permanent,consecutive connection,surface water,38.742692,-120.788546
CA0910003,NA,011,sierra (eid act 61411)    xcld,active,permanent,consecutive connection,surface water,38.723931,-120.764991
CA0910006,NA,001,treatment plant - raw,active,permanent,intake,surface water,38.64458,-120.517417
CA0910007,NA,005,well 05 - raw,active,permanent,well,groundwater,38.924918,-120.014004
CA0910007,NA,007,stpud - intertie eloise,active,emergency,consecutive connection,groundwater,38.916002,-120.00445
CA0910007,NA,011,stpud - intertie 15th,active,emergency,consecutive connection,groundwater,38.92799,-120.00367
CA0910012,2444,003,rubicon well 01 - silvertip - raw,active,permanent,well,groundwater,39.0251,-120.122221
CA0910012,2444,004,rubicon well 02 - lakeview,active,permanent,well,groundwater,39.032806,-120.118927
CA0910012,2444,006,rubicon well 03 - ridge,active,permanent,well,groundwater,39.033324,-120.1795
CA0910013,990,001,walton lake - raw,active,permanent,intake,surface water,38.922481,-120.777587
CA0910013,990,003,sweetwater - raw,active,permanent,intake,surface water,38.913111,-120.928259
CA0910015,NA,003,well 03 -raw,active,permanent,well,groundwater,38.930204,-120.022487
CA0910015,NA,009,lukins brothers water company intertie,active,permanent,consecutive connection,groundwater,38.923044,-120.020571
CA0910017,816,001,strawberry wtp - raw,active,permanent,intake,surface water,38.800973,-120.142282
CA0910018,816,002,outingdale wtp - raw,active,permanent,intake,surface water,38.620278,-120.716944
CA0910018,816,Not Available,main system hauling to outingdale,not available,emergency,non-purchased,surface water,NA,NA
CA0910019,NA,001,lake tahoe - raw,active,permanent,intake,surface water,38.961185,-119.950165
CA0910019,NA,005,well 03,active,permanent,well,groundwater,38.958602,-119.947841
CA0910019,NA,006,south tahoe pud       xcld,active,emergency,consecutive connection,groundwater,38.960413,-119.943966
CA0910024,NA,001,well 01,active,permanent,well,groundwater,39.042043,-120.122039
CA0910300,NA,004,well 02 - raw,active,permanent,well,groundwater,38.755794,-121.110747
CA0910301,NA,001,treatment plant - raw,active,permanent,intake,surface water,38.977582,-120.104836
CA0910302,NA,001,lake tahoe intake vikingsholm - raw,active,permanent,intake,surface water,38.953166,-120.10628
CA0910303,NA,001,lake tahoe intake eagle pt cmpgrnd - raw,active,permanent,intake,surface water,38.961083,-120.083925
CA0910305,NA,001,lake tahoe intake boat campground - raw,active,permanent,intake,surface water,38.959384,-120.096108
CA1000003,NA,001,bear creek - raw,active,seasonal,intake,surface water,37.257747,-119.187719
CA1000004,NA,007,well 01 - 7th tee,active,permanent,well,groundwater,36.74774,-119.644921
CA1000004,NA,008,emergency intertie (belmont cc 1000473),active,emergency,consecutive connection,groundwater,36.747688,-119.63735
CA1000005,NA,003,sce/bc#1 purchased water,active,permanent,consecutive connection,surface water,37.21183,-119.245163
CA1000007,NA,001,well 01,active,seasonal,well,groundwater,37.237602,-119.231179
CA1000010,NA,001,balsam creek - raw,active,permanent,intake,surface water,37.187608,-119.258323
CA1000012,NA,001,middle spring,active,seasonal,spring,groundwater,37.112135,-118.997164
CA1000013,NA,001,spring,active,permanent,spring,groundwater,37.257426,-119.172386
CA1000014,NA,004,well 01,active,permanent,well,groundwater,37.255277,-119.173888
CA1000015,NA,002,well 01,active,permanent,well,groundwater,37.082166,-119.154583
CA1000016,NA,001,well 01 - west well,active,permanent,well,groundwater,37.109847,-119.316068
CA1000017,NA,002,"spring 02, upper system",active,seasonal,spring,groundwater,37.234961,-119.247716
CA1000018,NA,001,easton estates anna/joy well well 02,active,permanent,well,groundwater,36.650487,-119.780713
CA1000018,NA,023,new well 01 (fantz/cherry),active,permanent,well,groundwater,36.652216,-119.781704
CA1000019,NA,001,california aqueduct - raw,active,permanent,intake,surface water,36.501902,-120.39032
CA1000020,NA,001,well 01,active,permanent,well,groundwater,37.198438,-119.199477
CA1000021,NA,001,fcsa #5 well 01 - raw,active,permanent,well,groundwater,36.738661,-119.462408
CA1000021,NA,002,fsca #5 well 02 - raw,active,permanent,well,groundwater,36.745275,-119.458725
CA1000023,NA,013,well 02,active,permanent,well,groundwater,36.747989,-119.634516
CA1000024,NA,001,well 01 - 12 gpm,active,permanent,well,groundwater,37.06084,-119.171472
CA1000039,NA,001,well 01,active,permanent,well,groundwater,36.8084,-119.56545
CA1000039,NA,002,well 02,active,permanent,well,groundwater,36.808394,-119.565894
CA1000040,NA,005,well 05 - raw,active,permanent,well,groundwater,37.079074,-119.418224
CA1000040,NA,018,well 06 - raw standby,active,other,well,groundwater,37.07902,-119.417481
CA1000041,NA,020,well 03,active,permanent,well,groundwater,37.02703,-119.650411
CA1000042,NA,002,well 05 - standby,active,emergency,well,groundwater,37.046115,-119.375834
CA1000042,NA,016,well 06 hancock well,active,permanent,well,groundwater,37.043794,-119.369402
CA1000042,NA,017,well 07,active,permanent,well,groundwater,36.0446,-119.3744
CA1000049,NA,001,spring,active,seasonal,spring,groundwater,37.2371,-119.2407
CA1000050,NA,001,line creek - inactive,inactive,other,intake,surface water,37.256053,-119.203064
CA1000051,NA,001,well - by johnson in 1972,active,permanent,well,groundwater,37.255488,-119.167997
CA1000053,NA,002,well 02 - standby,active,other,well,groundwater,36.433522,-119.922874
CA1000053,NA,003,well 03 - standby,active,other,well,groundwater,36.434561,-119.922966
CA1000053,NA,005,well 05,active,permanent,well,groundwater,36.433811,-119.921975
CA1000054,NA,001,firebaugh city water - purchased,active,permanent,consecutive connection,groundwater,36.798056,-120.438889
CA1000056,NA,007,bartlett well 02,active,permanent,well,groundwater,37.076761,-119.431594
CA1000056,NA,008,well 08 - active,active,permanent,well,groundwater,37.077677,-119.434702
CA1000057,NA,001,well 01,active,permanent,well,groundwater,36.758165,-119.858867
CA1000058,NA,002,well 04,active,permanent,well,groundwater,37.098931,-119.318981
CA1000059,NA,004,fcwwd #41 purchased water,active,permanent,consecutive connection,groundwater,37.097025,-119.315944
CA1000060,NA,002,kurpakus well 02,active,permanent,well,groundwater,37.104215,-119.3145
CA1000061,NA,004,fcwwd #41 purchased water,active,emergency,consecutive connection,groundwater,37.097794,-119.316127
CA1000063,NA,001,well 01 - north well - raw,active,permanent,well,groundwater,37.093722,-119.498518
CA1000063,NA,003,well 03 - south well - raw,active,permanent,well,groundwater,37.08795,-119.492857
CA1000063,NA,024,well 04-thoman - raw - pending,proposed,other,well,groundwater,NA,NA
CA1000067,NA,008,well 01,active,permanent,well,groundwater,37.257539,-119.160533
CA1000069,NA,001,well 03 on line,active,permanent,well,groundwater,37.104996,-119.319616
CA1000069,NA,003,well 05,active,permanent,well,groundwater,37.108665,-119.322272
CA1000069,NA,004,well 06 (beeman well),active,permanent,well,groundwater,37.108056,-119.32
CA1000071,NA,001,well 01 - older well - raw,active,permanent,well,groundwater,37.143027,-119.306673
CA1000072,NA,001,well 01-lateral well - raw,active,permanent,well,groundwater,37.140562,-119.307996
CA1000075,NA,001,well 01,active,permanent,well,groundwater,36.604095,-119.612326
CA1000076,NA,001,well 01,active,seasonal,well,groundwater,37.251026,-119.200498
CA1000078,NA,002,well 03,active,permanent,well,groundwater,36.846904,-119.643355
CA1000078,NA,003,well 04,active,permanent,well,groundwater,36.84824,-119.643249
CA1000078,NA,004,well 05,active,permanent,well,groundwater,36.85005,-119.645609
CA1000080,NA,001,well 01,active,permanent,well,groundwater,37.252949,-119.197312
CA1000083,NA,001,well 01,active,permanent,well,groundwater,36.904754,-119.291907
CA1000085,NA,001,well 01,active,permanent,well,groundwater,36.866737,-119.309563
CA1000094,NA,005,front gate well - raw,active,permanent,well,groundwater,36.72779,-119.913174
CA1000096,NA,001,north well (well 01) - raw,active,permanent,well,groundwater,36.788068,-119.409508
CA1000097,NA,001,well 01 - entrance well - raw,active,permanent,well,groundwater,36.977692,-119.727983
CA1000104,NA,001,well 01,active,permanent,well,groundwater,36.732136,-119.501104
CA1000105,NA,004,primary well - raw,active,permanent,well,groundwater,36.730029,-119.85814
CA1000111,NA,001,well-off site,active,permanent,well,groundwater,37.065567,-119.364643
CA1000111,NA,Not Available,scott houston potable water,not available,emergency,purchased,groundwater,NA,NA
CA1000116,NA,005,hume lake christian camps purchased wate,active,permanent,consecutive connection,surface water,36.785271,-118.923537
CA1000122,NA,001,well 01,active,permanent,well,groundwater,36.756667,-119.15
CA1000126,NA,001,well 03,active,permanent,well,groundwater,36.7586,-118.904587
CA1000128,NA,001,well 01,active,permanent,well,groundwater,36.735468,-118.991006
CA1000129,NA,003,camp redwood  well 01 (upper),active,permanent,well,groundwater,36.732382,-118.986415
CA1000130,NA,001,well 01,active,permanent,well,groundwater,36.700322,-119.009941
CA1000134,NA,001,well 01,active,seasonal,well,groundwater,37.075898,-119.186378
CA1000135,NA,001,well 01,active,seasonal,well,groundwater,37.06095,-119.155193
CA1000136,NA,001,well 02 - raw,active,permanent,well,groundwater,36.906227,-119.3072
CA1000137,NA,019,spring 03  - 800 ft from road upper,active,seasonal,spring,groundwater,37.083502,-119.158934
CA1000140,NA,001,well 01,active,seasonal,well,groundwater,37.251491,-119.162163
CA1000141,NA,001,well 01,active,seasonal,well,groundwater,37.240332,-119.23012
CA1000143,NA,001,well 01,active,seasonal,well,groundwater,37.113803,-119.311132
CA1000145,NA,001,well 01,active,seasonal,well,groundwater,37.381674,-119.011206
CA1000147,NA,001,well 01,active,seasonal,well,groundwater,37.252735,-119.182486
CA1000148,NA,014,well 04 (entrance) - raw,active,permanent,well,groundwater,36.790494,-119.30555
CA1000151,NA,002,east well (02),active,permanent,well,groundwater,36.759105,-119.073176
CA1000156,NA,009,well 01 - raw,active,permanent,well,groundwater,37.235376,-119.177145
CA1000165,NA,001,well 01 south end of meadow drainage,active,seasonal,well,groundwater,37.109557,-119.291237
CA1000170,NA,003,spring - inactive 2023,inactive,permanent,spring,groundwater,37.075,-119.15
CA1000171,NA,003,base area well,active,permanent,well,groundwater,37.237427,-119.154786
CA1000172,NA,001,spring,active,permanent,spring,groundwater,37.261784,-119.173515
CA1000176,NA,005,well 07 - raw,active,permanent,well,groundwater,36.551444,-120.111127
CA1000177,NA,001,california aqueduct - raw,active,permanent,intake,surface water,36.671775,-120.537865
CA1000178,NA,001,california aqueduct - raw,active,permanent,intake,surface water,36.255026,-120.25382
CA1000180,NA,001,well 01,active,permanent,well,groundwater,36.610583,-119.39796
CA1000181,NA,001,well 01,active,permanent,well,groundwater,36.554353,-119.795532
CA1000182,NA,001,well 01 - raw,active,permanent,well,groundwater,36.491179,-119.989206
CA1000184,NA,002,north well - raw,active,permanent,well,groundwater,36.736273,-119.118389
CA1000185,NA,001,well 01,active,permanent,well,groundwater,36.661805,-119.448841
CA1000186,NA,001,well 01 - raw,active,permanent,well,groundwater,36.532595,-120.099756
CA1000187,NA,001,well 01,active,permanent,well,groundwater,36.591079,-119.583513
CA1000189,NA,001,well 01,active,permanent,well,groundwater,36.434055,-119.682899
CA1000189,NA,002,purchased gw from laton csd,active,permanent,consecutive connection,groundwater,36.434444,-119.681944
CA1000190,NA,001,primary well,active,permanent,well,groundwater,36.698379,-119.684247
CA1000192,NA,001,well 01 - raw,active,permanent,well,groundwater,36.56295,-119.735725
CA1000193,NA,001,well primary,active,permanent,well,groundwater,36.684469,-119.384685
CA1000194,NA,001,well 01 - raw,active,permanent,well,groundwater,36.601171,-119.754625
CA1000196,NA,012,well 02,active,permanent,well,groundwater,36.609326,-119.483784
CA1000198,NA,002,well 02,active,permanent,well,groundwater,36.548877,-119.682552
CA1000199,NA,001,well 01 - before gac (dbcp),active,permanent,well,groundwater,36.634574,-119.637329
CA1000200,NA,003,well 02,active,permanent,well,groundwater,36.591844,-119.791425
CA1000201,NA,001,well 01,active,permanent,well,groundwater,36.774048,-120.087522
CA1000204,NA,001,well 01,active,permanent,well,groundwater,36.632467,-119.840436
CA1000206,NA,001,well 01 - raw,active,permanent,well,groundwater,36.727064,-119.951501
CA1000208,NA,001,well 01 - raw,active,permanent,well,groundwater,36.77349,-119.924293
CA1000213,NA,001,california aqueduct - raw,active,permanent,intake,surface water,36.341816,-120.301932
CA1000214,NA,001,california aqueduct - raw,active,permanent,intake,surface water,36.247142,-120.246614
CA1000217,NA,001,well 01 primary  - raw,active,permanent,well,groundwater,36.76563,-119.971198
CA1000221,NA,006,well 04 - raw,active,permanent,well,groundwater,36.648333,-119.795
CA1000221,NA,007,well 05-washington colony primary-raw,active,permanent,well,groundwater,36.648888,-119.786388
CA1000223,NA,001,spring 01 at power lines,active,permanent,spring,groundwater,37.027631,-118.997689
CA1000229,NA,001,well 01 - raw,active,permanent,well,groundwater,36.780475,-119.854249
CA1000230,NA,001,well 01 - raw,active,permanent,well,groundwater,36.887298,-119.784044
CA1000238,NA,023,well 03,active,permanent,well,groundwater,36.432561,-119.799488
CA1000244,NA,001,well 01 - raw,active,permanent,well,groundwater,36.652995,-119.737183
CA1000247,NA,001,sherwood forest well - raw,active,permanent,well,groundwater,36.742272,-119.447361
CA1000249,NA,001,well 01,active,permanent,well,groundwater,36.866935,-119.319214
CA1000257,NA,014,well 03 near well 01,active,permanent,well,groundwater,37.084308,-119.489551
CA1000257,NA,015,well 05,active,permanent,well,groundwater,37.082841,-119.487905
CA1000258,NA,001,well 01,active,permanent,well,groundwater,36.865126,-119.317886
CA1000259,NA,002,well 02,active,permanent,well,groundwater,36.7564,-119.8483
CA1000260,NA,001,well 01 - little well - standby,active,emergency,well,groundwater,37.045306,-119.500112
CA1000260,NA,002,well 02 - blue heron,active,permanent,well,groundwater,37.046349,-119.502744
CA1000261,NA,001,well 01 - raw,active,permanent,well,groundwater,36.857782,-119.343613
CA1000264,NA,001,well 01,active,permanent,well,groundwater,36.861526,-119.350144
CA1000265,NA,001,well 01 - near tank,active,permanent,well,groundwater,37.067802,-119.480792
CA1000265,NA,002,well 02 - across road,active,permanent,well,groundwater,37.067691,-119.480778
CA1000267,NA,002,well 02 - raw,active,permanent,well,groundwater,36.754516,-119.166336
CA1000267,NA,003,well 03 - standby,active,emergency,well,groundwater,36.754678,-119.16533
CA1000267,NA,004,well 04 - raw,active,permanent,well,groundwater,36.753727,-119.169077
CA1000270,NA,001,well 01 - raw,active,permanent,well,groundwater,36.819307,-119.364778
CA1000277,NA,001,well 01-raw,active,permanent,well,groundwater,36.682918,-119.788552
CA1000279,NA,002,well 03-raw,active,permanent,well,groundwater,36.601617,-119.510197
CA1000280,NA,001,well 01 - raw,active,permanent,well,groundwater,37.038505,-119.449769
CA1000280,NA,002,well 02 - raw,active,permanent,well,groundwater,37.036551,-119.446646
CA1000280,NA,005,well 03 -  raw,active,permanent,well,groundwater,37.036551,-119.446646
CA1000282,NA,037,dorabelle well,active,permanent,well,groundwater,37.118955,-119.309333
CA1000295,NA,001,well 01 - raw,active,permanent,well,groundwater,36.689838,-119.556497
CA1000298,NA,001,well 01- raw,active,permanent,well,groundwater,36.873381,-119.791609
CA1000299,NA,001,well 03 - raw,active,permanent,well,groundwater,36.76835,-119.836003
CA1000304,NA,002,well 02 active,active,permanent,well,groundwater,36.763186,-119.138663
CA1000305,NA,001,well-se corner h-168 & dinkey crk rd,active,permanent,well,groundwater,37.100814,-119.317424
CA1000308,NA,002,well 01,active,permanent,well,groundwater,37.326902,-119.016568
CA1000310,NA,003,well 03,active,permanent,well,groundwater,36.700164,-119.010324
CA1000315,NA,003,well 2,active,permanent,well,groundwater,36.554377,-119.505627
CA1000316,NA,001,well 01 - raw,active,permanent,well,groundwater,36.589076,-119.375728
CA1000317,NA,001,well 01,active,permanent,well,groundwater,36.735232,-120.217674
CA1000318,NA,002,well 02 - raw,active,permanent,well,groundwater,36.867429,-119.308064
CA1000319,NA,001,well 01,active,permanent,well,groundwater,37.235932,-119.239427
CA1000324,NA,002,well 02 - raw,active,permanent,well,groundwater,36.605,-119.752777
CA1000330,NA,006,well 2,active,other,well,groundwater,NA,NA
CA1000345,NA,001,california aqueduct - raw,active,permanent,intake,surface water,36.89094,-120.727962
CA1000359,NA,001,california aqueduct - raw,active,permanent,intake,surface water,36.501472,-120.329766
CA1000361,NA,001,california aqueduct - raw,active,permanent,intake,surface water,36.430179,-120.211963
CA1000362,NA,001,main well - standby,active,emergency,well,groundwater,36.672746,-119.924019
CA1000365,NA,001,"well 01, near space #27  raw",active,permanent,well,groundwater,37.109415,-119.315784
CA1000366,NA,001,well 01,active,permanent,well,groundwater,36.695568,-119.716829
CA1000367,NA,001,well 01,active,permanent,well,groundwater,36.579885,-119.618802
CA1000367,NA,002,cws-selma stby purchased,active,emergency,consecutive connection,groundwater,36.580922,-119.615308
CA1000369,NA,002,well 02 (cedar) - raw,active,permanent,well,groundwater,36.455451,-119.762907
CA1000377,NA,001,well 01,active,permanent,well,groundwater,36.752628,-119.131441
CA1000377,NA,003,well 03-raw,active,permanent,well,groundwater,36.75235,-119.129008
CA1000377,NA,004,well 04 - stdby,active,emergency,well,groundwater,36.752194,-119.128708
CA1000378,NA,001,primary well,active,permanent,well,groundwater,36.782076000000004,-119.850229
CA1000378,NA,002,well 02 - standby,active,emergency,well,groundwater,36.782088,-119.850199
CA1000381,NA,028,well 01 - raw,active,permanent,well,groundwater,36.539294,-119.576401
CA1000383,NA,001,east well-raw,active,permanent,well,groundwater,36.541589,-119.581762
CA1000389,NA,002,well 02 - raw - secondary well,active,permanent,well,groundwater,36.801875,-119.582381
CA1000393,NA,001,well 01,active,seasonal,well,groundwater,37.104899,-118.986522
CA1000399,NA,001,well 01,active,permanent,well,groundwater,36.687536,-119.756467
CA1000405,NA,001,well 01 - raw,active,permanent,well,groundwater,36.819076,-119.378303
CA1000406,NA,013,well 03,active,permanent,well,groundwater,36.750588,-119.640855
CA1000411,NA,001,well 01 - raw,active,permanent,well,groundwater,36.612662,-119.481563
CA1000416,NA,001,well 01,active,permanent,well,groundwater,36.649706,-119.791098
CA1000424,NA,002,well 02 - raw,active,permanent,well,groundwater,37.036619,-119.514583
CA1000426,NA,001,well 01 - raw,active,permanent,well,groundwater,36.731132,-119.468415
CA1000426,NA,002,well 02 - former sandy point - raw,active,permanent,well,groundwater,36.731,-119.468436
CA1000430,NA,022,well 02 - raw,active,permanent,well,groundwater,36.749051,-119.881224
CA1000439,NA,001,well 01 - raw,active,permanent,well,groundwater,36.136929,-120.166168
CA1000440,NA,001,well 01 - raw,active,permanent,well,groundwater,36.54449,-119.570797
CA1000442,NA,004,well 01b,active,permanent,well,groundwater,36.66598,-119.777341
CA1000443,NA,001,well 01,active,permanent,well,groundwater,36.855246,-119.879734
CA1000447,NA,068,purchased water from bakman wc - 1010001,active,permanent,consecutive connection,groundwater,36.756887999999996,-119.700175
CA1000453,NA,013,well - raw,active,permanent,well,groundwater,36.808333,-119.555722
CA1000454,NA,001,well 01,active,permanent,well,groundwater,36.533399,-119.577297
CA1000457,NA,001,well 01 - raw,active,permanent,well,groundwater,36.561545,-119.546713
CA1000459,NA,001,well 01 - before_nitrate-trt,active,permanent,well,groundwater,36.648395,-119.790658
CA1000460,NA,002,well 02 (south well),active,permanent,well,groundwater,36.749352,-119.664145
CA1000461,NA,001,well 01 - raw,active,permanent,well,groundwater,36.69131,-119.800153
CA1000462,NA,002,well 02,active,permanent,well,groundwater,36.58035,-119.824119
CA1000467,NA,001,well 01 - raw,active,permanent,well,groundwater,36.655908,-119.713272
CA1000468,NA,001,well 02 - raw,active,permanent,well,groundwater,36.55081,-119.793221
CA1000471,NA,001,fresno city water intake,active,permanent,consecutive connection,groundwater,36.714071,-119.827128
CA1000472,NA,001,well 01- raw - before as trtmt,active,permanent,well,groundwater,37.011355,-119.012151
CA1000473,NA,004,emergency intertie (belmont water corp),active,emergency,consecutive connection,groundwater,36.747688,-119.63735
CA1000474,NA,006,well 02 - raw,active,permanent,well,groundwater,36.738807,-119.2514
CA1000476,NA,001,well 03a,active,permanent,well,groundwater,37.040592,-119.529297
CA1000476,NA,002,well 05 - raw,active,permanent,well,groundwater,37.042492,-119.525366
CA1000476,NA,020,well 08 - irrigation only inactive,inactive,interim,well,groundwater,37.368056,-119.525806
CA1000478,NA,001,well 01,active,permanent,well,groundwater,37.067656,-119.156314
CA1000479,NA,001,well 01 - raw,active,permanent,well,groundwater,36.689911,-119.452963
CA1000480,NA,027,well 02- standby,active,emergency,well,groundwater,36.611916,-119.750761
CA1000482,NA,002,main well,active,permanent,well,groundwater,36.798566,-119.581188
CA1000483,NA,002,well 02 - primary,active,permanent,well,groundwater,36.796699,-120.025124
CA1000484,NA,001,well 01 - raw - standby,active,emergency,well,groundwater,36.979167,-119.652778
CA1000484,NA,003,millerton lake - raw,active,permanent,intake,surface water,37.001516,-119.667964
CA1000485,NA,013,well 01 - raw,active,permanent,well,groundwater,36.677766,-119.690955
CA1000486,NA,001,well 01 - raw,active,permanent,well,groundwater,36.600992,-119.643662
CA1000487,NA,001,well 01,active,seasonal,well,groundwater,37.376846,-119.013144
CA1000488,NA,001,well 01,active,permanent,well,groundwater,36.826694,-119.915592
CA1000490,NA,001,california aqueduct - raw,active,permanent,intake,surface water,36.181737,-120.154242
CA1000492,NA,001,well #1,active,permanent,well,groundwater,36.763901,-119.556842
CA1000495,NA,001,well 01,active,permanent,well,groundwater,36.809036,-119.922482
CA1000497,NA,001,well 01,active,permanent,well,groundwater,37.073513,-119.487576
CA1000501,NA,001,well 01- raw,active,permanent,well,groundwater,37.020511,-119.400469
CA1000502,NA,001,well 01,active,permanent,well,groundwater,36.657266,-119.794608
CA1000507,NA,001,well 01 - raw (dbcp),active,permanent,well,groundwater,36.585285,-119.324197
CA1000508,NA,001,well 01,active,permanent,well,groundwater,37.046752,-119.481567
CA1000511,NA,001,well 01,active,permanent,well,groundwater,36.647577,-119.787692
CA1000513,NA,002,well 02,active,permanent,well,groundwater,36.763461,-119.914869
CA1000514,NA,005,well 03- raw,active,permanent,well,groundwater,36.779444,-119.429166
CA1000515,NA,002,well 02,active,permanent,well,groundwater,36.675186,-119.784975
CA1000517,NA,001,well 01 - raw inac2023,inactive,other,well,groundwater,36.748983,-119.555047
CA1000519,NA,001,well 01,active,permanent,well,groundwater,37.041194,-119.470756
CA1000520,NA,001,well 01,active,permanent,well,groundwater,36.560929,-119.629638
CA1000524,NA,001,well 01,active,permanent,well,groundwater,37.090954,-119.493428
CA1000525,NA,007,well 01,active,permanent,well,groundwater,36.76686,-119.127694
CA1000526,NA,001,well 01 - raw,active,permanent,well,groundwater,36.499861,-119.611399
CA1000528,NA,001,well 01 - raw,active,permanent,well,groundwater,36.741569,-119.243936
CA1000529,NA,001,well 02,active,permanent,well,groundwater,36.852844,-119.699427
CA1000533,NA,001,well 01 - secondary,active,permanent,well,groundwater,36.657376,-119.711944
CA1000534,NA,001,well 01,active,permanent,well,groundwater,36.690337,-119.581111
CA1000537,NA,001,well 01,active,other,well,groundwater,36.845036,-119.730372
CA1000540,NA,001,well 01,active,permanent,well,groundwater,36.545988,-119.598811
CA1000541,NA,001,well 01 - before ur trt & gac (dbcp),active,permanent,well,groundwater,36.598677,-119.648886
CA1000544,NA,001,well 01,active,permanent,well,groundwater,36.647062,-119.790479
CA1000545,NA,001,well 01,active,permanent,well,groundwater,36.547136,-119.598962
CA1000546,NA,001,california aqueduct - raw,active,permanent,intake,surface water,36.394203,-120.14839
CA1000548,NA,001,well 01 - raw,active,permanent,well,groundwater,37.067061,-119.48095000000001
CA1000549,NA,001,well 01,active,permanent,well,groundwater,37.101921,-119.319504
CA1000550,NA,001,well 01 - raw,active,permanent,well,groundwater,36.913861,-119.727513
CA1000550,NA,002,well 02 - raw,active,permanent,well,groundwater,36.916427,-119.72933
CA1000551,NA,001,well 01,active,permanent,well,groundwater,36.59938,-119.905597
CA1000552,NA,001,well 01,active,permanent,well,groundwater,36.634102,-119.782888
CA1000553,NA,001,well 01 - raw,active,permanent,well,groundwater,36.913336,-119.726436
CA1000554,NA,001,well 01 - raw,active,permanent,well,groundwater,36.835522,-119.638252
CA1000554,NA,002,well 02 - raw,active,permanent,well,groundwater,36.830224,-119.63653
CA1000555,NA,001,well 03,active,permanent,well,groundwater,36.959627,-119.726925
CA1000555,NA,002,well 02,active,permanent,well,groundwater,36.95965,-119.726552
CA1000557,NA,001,well 01,active,permanent,well,groundwater,36.793108,-119.907558
CA1000560,NA,001,well 01-raw,active,permanent,well,groundwater,36.614688,-120.066091
CA1000561,NA,001,well 01,active,permanent,well,groundwater,37.091844,-119.548836
CA1000562,NA,001,well 01 - raw,active,permanent,well,groundwater,36.49218,-119.789711
CA1000564,NA,001,california aqueduct - raw,active,permanent,reservoir,surface water,36.155986,-120.201644
CA1000565,NA,001,well 01,active,permanent,well,groundwater,36.595363,-119.512022
CA1000566,NA,001,well 01 - raw,active,permanent,well,groundwater,36.556116,-119.747286
CA1000568,NA,001,well 01,active,permanent,well,groundwater,36.64965,-119.711738
CA1000569,NA,001,horizontal well,active,seasonal,well,groundwater,36.739747,-118.729581
CA1000570,NA,001,north well,active,permanent,well,groundwater,36.659566,-119.729005
CA1000570,NA,002,south well,active,permanent,well,groundwater,36.662133,-119.728613
CA1000571,NA,001,well 01 - raw,inactive,other,well,groundwater,36.811308,-119.924958
CA1000573,NA,001,well 01 - raw,active,permanent,well,groundwater,36.738658,-119.254733
CA1000575,NA,003,well 02 - new facility well,active,permanent,well,groundwater,36.577772,-119.695124
CA1000576,NA,001,well 01 - standby,active,emergency,well,groundwater,36.696141,-119.645613
CA1000577,NA,001,well 01,active,permanent,well,groundwater,36.737219,-119.116227
CA1000578,NA,001,well 01,active,permanent,well,groundwater,36.650013,-119.707748
CA1000579,NA,001,well 01 - raw,active,permanent,well,groundwater,37.046663,-119.475366
CA1000580,NA,001,well 01- raw,active,permanent,well,groundwater,36.512688,-119.8033
CA1000583,NA,001,well 01 - raw,active,permanent,well,groundwater,36.732502,-119.2575
CA1000584,NA,001,well 01 - raw,active,permanent,well,groundwater,36.529197,-120.156116
CA1000585,NA,002,well 02,active,permanent,well,groundwater,36.655497,-120.443366
CA1000586,NA,001,well 01,active,permanent,well,groundwater,36.907358,-119.757269
CA1000587,NA,003,well 02 - primary,active,permanent,well,groundwater,37.138866,-119.308638
CA1000589,NA,001,well 01,active,permanent,well,groundwater,37.074747,-119.486805
CA1000590,NA,001,well 01,active,permanent,well,groundwater,36.856847,-119.84348
CA1000592,NA,001,well 01-before_nitrate-trt,active,permanent,well,groundwater,36.642555,-119.703458
CA1000593,NA,003,new south well (well 03),active,permanent,well,groundwater,36.561694,-119.740005
CA1000599,NA,001,well 01 - raw,active,permanent,well,groundwater,36.736383,-119.45255
CA1000600,NA,001,well 01,active,permanent,well,groundwater,37.037547000000004,-119.513833
CA1000601,NA,001,well 01 - raw,active,permanent,well,groundwater,36.719266,-119.448241
CA1000602,NA,001,well 01 - standby,active,emergency,well,groundwater,36.704,-120.093611
CA1000606,NA,002,well 02,active,permanent,well,groundwater,36.7536,-119.1712
CA1000607,NA,001,california aqueduct - raw,active,permanent,intake,surface water,36.692236,-120.585763
CA1000608,NA,001,well 01 - before trt_nitrate-cl2,active,permanent,well,groundwater,36.687613,-119.461511
CA1000609,NA,001,well 01 - raw,active,permanent,well,groundwater,37.036583,-119.508875
CA1000611,NA,001,well 01 - raw,active,permanent,well,groundwater,37.111741,-119.319769
CA1000613,NA,001,well 01 (horizontal),active,permanent,well,groundwater,36.765,-118.881666
CA1000614,NA,001,well 01,active,permanent,well,groundwater,36.78523,-119.609397
CA1000619,NA,001,well 01,active,permanent,well,groundwater,36.546388,-119.790277
CA1000620,NA,001,well 01,active,permanent,well,groundwater,36.657191,-119.791611
CA1000621,NA,001,well 01,active,permanent,well,groundwater,37.107583,-119.318269
CA1000625,NA,003,well 02 - raw,active,permanent,well,groundwater,36.604166,-119.394444
CA1000626,NA,001,well 01,active,permanent,well,groundwater,36.652291,-119.789711
CA1000627,NA,001,well 03 (cerini) - raw,active,permanent,well,groundwater,36.459661,-119.770622
CA1000629,NA,001,well 01- raw - inactive,inactive,other,well,groundwater,36.673358,-119.564924
CA1000630,NA,001,well 01,active,permanent,well,groundwater,36.787936,-120.005877
CA1000634,NA,001,well 01 - 2016,active,permanent,well,groundwater,36.5625,-119.6283
CA1000635,NA,001,well 01,active,permanent,well,groundwater,36.5617,-119.6283
CA1000637,NA,001,well 01,active,permanent,well,groundwater,36.615,-119.4475
CA1000638,NA,001,well 01,active,permanent,well,groundwater,NA,NA
CA1000639,NA,002,well 02- raw,active,permanent,well,groundwater,36.806688,-120.061861
CA1000641,NA,001,dw3n - well 01,active,permanent,well,groundwater,36.76721,-120.23659
CA1000643,NA,002,well 02 -raw,active,permanent,well,groundwater,36.482369,-120.022208
CA1000644,NA,001,well 01,active,permanent,well,groundwater,36.5675,-119.476944
CA1000645,NA,003,ca aqueduct - raw,active,permanent,intake,surface water,36.5504,-120.434166
CA1000647,NA,001,well 01 - raw,active,permanent,well,groundwater,36.740129,-119.866975
CA1000648,NA,001,well 01,active,permanent,well,groundwater,36.51877,-119.627445
CA1000649,NA,001,well 01 - raw,active,permanent,well,groundwater,36.731725,-119.883975
CA1000650,NA,001,well 01 - raw,active,permanent,well,groundwater,36.634611,-119.755277
CA1000652,NA,001,well 01,active,permanent,well,groundwater,36.736805,-119.862083
CA1000654,NA,001,well 01,active,permanent,well,groundwater,36.739452,-119.249455
CA1000655,NA,001,well 01,active,permanent,well,groundwater,36.734722,-119.609444
CA1000661,NA,001,well 01,active,permanent,well,groundwater,36.73833,-119.60904
CA1000663,NA,003,well 3  - before gac (tcp) & cl,active,permanent,well,groundwater,36.66125,-119.401833
CA1000664,NA,001,well 01 - raw,active,permanent,well,groundwater,36.704952,-120.859852
CA1000665,NA,001,well 01 - raw,active,permanent,well,groundwater,36.576213,-119.413177
CA1000667,NA,001,well 01 - raw,active,permanent,well,groundwater,37.106666,-119.318611
CA1000670,NA,001,well 01,active,permanent,well,groundwater,36.632777,-119.393888
CA1000671,NA,003,well 03,active,permanent,well,groundwater,36.674444,-120.045277
CA1000675,NA,001,well 01,active,permanent,well,groundwater,37.073663,-119.486069
CA1000676,NA,001,well 01 - before trt_no3-cl2,active,permanent,well,groundwater,36.7354,-119.555583
CA1009020,NA,002,well 02 - raw,active,permanent,well,groundwater,36.430986,-120.265588
CA1009021,NA,Not Available,not available,not available,not available,not available,not available,NA,NA
CA1009023,NA,001,california aqueduct - raw,active,permanent,intake,surface water,36.414986,-120.192701
CA1009024,NA,Not Available,not available,not available,not available,not available,not available,NA,NA
CA1009027,NA,001,california aqueduct - raw,active,permanent,intake,surface water,36.342103,-120.215479
CA1009028,NA,001,california aqueduct - raw,active,permanent,intake,surface water,36.298028,-120.210997
CA1009032,NA,Not Available,not available,not available,not available,not available,not available,NA,NA
CA1009039,NA,001,california aqueduct - raw,active,permanent,intake,surface water,36.720099,-120.441322
CA1009042,NA,Not Available,not available,not available,not available,not available,not available,NA,NA
CA1009051,NA,002,well 01,active,permanent,well,groundwater,36.502352,-120.314833
CA1009069,NA,Not Available,not available,not available,not available,not available,not available,NA,NA
CA1009078,NA,001,california aqueduct - raw,active,permanent,intake,surface water,36.300873,-120.264723
CA1009091,NA,003,well 01 - raw,active,permanent,well,groundwater,36.849206,-120.645907
CA1009111,NA,030,huntington penstock - raw,active,permanent,intake,surface water,37.228558,-119.221708
CA1009120,NA,001,east well,active,permanent,well,groundwater,36.602513,-119.97809
CA1009125,NA,Not Available,not available,not available,not available,not available,not available,NA,NA
CA1009129,NA,001,balch siphon - raw,active,permanent,intake,surface water,36.908301,-119.123082
CA1009147,NA,001,california aqueduct - raw - inac 2023,inactive,other,intake,surface water,36.372972,-120.102461
CA1009150,NA,Not Available,not available,not available,not available,not available,not available,NA,NA
CA1009171,NA,Not Available,not available,not available,not available,not available,not available,NA,NA
CA1009179,NA,001,california aqueduct - raw,active,permanent,intake,surface water,36.430197,-120.10199
CA1009214,NA,001,california aqueduct - raw,active,permanent,intake,surface water,36.47929,-120.392187
CA1009222,NA,001,california aqueduct - raw,active,permanent,intake,surface water,36.313643,-120.103159
CA1009232,NA,001,california aqueduct - raw,active,permanent,intake,surface water,36.559825,-120.39784
CA1009255,NA,Not Available,not available,not available,not available,not available,not available,NA,NA
CA1009256,NA,001,main well 75gpm - raw - before as trtmt,active,permanent,well,groundwater,37.010968,-118.978463
CA1009257,NA,Not Available,not available,not available,not available,not available,not available,NA,NA
CA1009268,NA,001,well 01,active,permanent,well,groundwater,NA,NA
CA1009288,NA,Not Available,not available,not available,not available,not available,not available,NA,NA
CA1009298,NA,Not Available,not available,not available,not available,not available,not available,NA,NA
CA1010001,124,005,well 06 - raw,active,permanent,well,groundwater,36.755147,-119.709515
CA1010001,124,020,well 04a - raw,active,permanent,well,groundwater,36.742205,-119.714647
CA1010001,124,021,well 15a - stby2019,active,emergency,well,groundwater,36.75701,-119.705204
CA1010001,124,022,well 16 - raw,active,permanent,well,groundwater,36.743267,-119.685866
CA1010003,574,034,well t-08 - raw,active,permanent,well,groundwater,36.794787,-119.70721
CA1010003,574,048,well 02a - raw,active,permanent,well,groundwater,36.824722,-119.706389
CA1010003,574,066,enterprise canal - raw,active,permanent,intake,surface water,36.821108,-119.63805
CA1010004,578,001,california aqueduct - raw,active,permanent,intake,surface water,36.210291,-120.246659
CA1010005,NA,010,well 11 - raw,active,permanent,well,groundwater,36.855865,-120.446087
CA1010005,NA,014,well 12 - raw,active,permanent,well,groundwater,36.855591,-120.443542
CA1010005,NA,018,well 16 - raw,active,permanent,well,groundwater,36.861072,-120.451697
CA1010005,NA,019,well 17 - raw,active,permanent,well,groundwater,36.8542,-120.441803
CA1010006,NA,002,well 02,active,permanent,well,groundwater,36.633333,-119.683333
CA1010006,NA,004,well 04,active,permanent,well,groundwater,36.634316,-119.66892
CA1010006,NA,006,well 05a,active,permanent,well,groundwater,36.613044,-119.660307
CA1010006,NA,008,well 07,active,permanent,well,groundwater,36.632969,-119.66398
